{"type":"FeatureCollection","features":[{"type":"Feature","id":"u_fc_poi_school.70","geometry":{"type":"Point","coordinates":[7.2507302,12.8702085]},"geometry_name":"geom","properties":{"state_code":"KT","source":"NMIS","name":"Malan Mannir Fura Girke Islamiyya","ward_code":"40309","category":"Primary","subtype":"Primary","management":"Public","education":"Religious","poi_type":"School","no_of_teachers":null,"no_of_students":null,"global_id":"002fecb7-a821-486c-84bd-2cfa732d1d99"}},{"type":"Feature","id":"u_fc_poi_school.75","geometry":{"type":"Point","coordinates":[8.494515,12.01396]},"geometry_name":"geom","properties":{"state_code":"KN","source":"NMIS","name":"Markazu Waja Islamiyya","ward_code":"KN1808","category":"Primary","subtype":"Primary","management":"Public","education":"Religious","poi_type":"School","no_of_teachers":null,"no_of_students":null,"global_id":"00343ae9-dbd0-4802-8aad-81e015f601fe"}},{"type":"Feature","id":"u_fc_poi_school.104","geometry":{"type":"Point","coordinates":[8.234778,12.23027]},"geometry_name":"geom","properties":{"state_code":"KN","source":"NMIS","name":"Nurul Quran Mbs Islamiyya School","ward_code":"KN0502","category":"Primary","subtype":"Standard","management":"Public","education":"Religious","poi_type":"School","no_of_teachers":null,"no_of_students":null,"global_id":"004c2cae-4fb3-41b6-9eb8-60db1dfeee8f"}},{"type":"Feature","id":"u_fc_poi_school.278","geometry":{"type":"Point","coordinates":[8.373547,12.022]},"geometry_name":"geom","properties":{"state_code":"KN","source":"NMIS","name":"Kajure Islamiyya","ward_code":"KN3915","category":"Primary","subtype":"Primary","management":"Public","education":"Religious","poi_type":"School","no_of_teachers":null,"no_of_students":null,"global_id":"00b0c899-3d96-4b4f-838e-a365482faa3e"}},{"type":"Feature","id":"u_fc_poi_school.282","geometry":{"type":"Point","coordinates":[7.67329,13.05852]},"geometry_name":"geom","properties":{"state_code":"KT","source":"OSGOF","name":"Islamiya School Lomin Yamma","ward_code":"41809","category":"Other","subtype":"Standard","management":"Faith Based","education":"Religious","poi_type":"School","no_of_teachers":null,"no_of_students":null,"global_id":"00b2e8ca-aba6-451e-b0bf-881ebaa3e8e9"}},{"type":"Feature","id":"u_fc_poi_school.315","geometry":{"type":"Point","coordinates":[5.2292079,13.0138207]},"geometry_name":"geom","properties":{"state_code":"SO","source":"NMIS","name":"Madarasatu Nurul Huda Islamiyya","ward_code":"62101","category":"Primary","subtype":"Primary","management":"Public","education":"Religious","poi_type":"School","no_of_teachers":null,"no_of_students":null,"global_id":"00c615a9-56ec-43d2-8fbb-da5f2765e3aa"}},{"type":"Feature","id":"u_fc_poi_school.394","geometry":{"type":"Point","coordinates":[8.118794,11.77335]},"geometry_name":"geom","properties":{"state_code":"KN","source":"NMIS","name":"Mundibo Islamiyya","ward_code":"KN2202","category":"Primary","subtype":"Primary","management":"Public","education":"Religious","poi_type":"School","no_of_teachers":null,"no_of_students":null,"global_id":"00f83121-af85-4e10-890e-d64ebeb2c3a2"}},{"type":"Feature","id":"u_fc_poi_school.418","geometry":{"type":"Point","coordinates":[8.997161,11.86544]},"geometry_name":"geom","properties":{"state_code":"KN","source":"NMIS","name":"Madarasatul Kiraatul Quran Chiranchi","ward_code":"KN1604","category":"Primary","subtype":"Primary","management":"Public","education":"Religious","poi_type":"School","no_of_teachers":null,"no_of_students":null,"global_id":"01070c9c-09d0-42bd-a60e-5d5e39d81b00"}},{"type":"Feature","id":"u_fc_poi_school.518","geometry":{"type":"Point","coordinates":[8.187335,11.83338]},"geometry_name":"geom","properties":{"state_code":"KN","source":"NMIS","name":"Koran Maje Islamiyya","ward_code":"KN2008","category":"Primary","subtype":"Primary","management":"Public","education":"Religious","poi_type":"School","no_of_teachers":null,"no_of_students":null,"global_id":"0142c80e-96e3-45c3-849e-956bfc68f0f9"}},{"type":"Feature","id":"u_fc_poi_school.586","geometry":{"type":"Point","coordinates":[8.583195,11.97773]},"geometry_name":"geom","properties":{"state_code":"KN","source":"NMIS","name":"Sautul Kuan Islamiyya","ward_code":"KN3106","category":"Primary","subtype":"Primary","management":"Public","education":"Religious","poi_type":"School","no_of_teachers":null,"no_of_students":null,"global_id":"016fd821-5829-48c5-82d7-7e77c0b9cb88"}},{"type":"Feature","id":"u_fc_poi_school.607","geometry":{"type":"Point","coordinates":[8.15777,12.14234]},"geometry_name":"geom","properties":{"state_code":"KN","source":"NMIS","name":"Imam Gurdo","ward_code":"KN0305","category":"Other","subtype":"Other","management":"Private","education":"Religious","poi_type":"School","no_of_teachers":null,"no_of_students":null,"global_id":"017b8329-e48a-40dd-b52c-7d99256e52c9"}},{"type":"Feature","id":"u_fc_poi_school.636","geometry":{"type":"Point","coordinates":[7.823183,11.54607]},"geometry_name":"geom","properties":{"state_code":"KN","source":"NMIS","name":"Mallam Amadu Quranic School Rogo","ward_code":"KN3407","category":"Primary","subtype":"Primary","management":"Public","education":"Religious","poi_type":"School","no_of_teachers":null,"no_of_students":null,"global_id":"0192a7fb-8441-4aba-97f9-911fe4978568"}},{"type":"Feature","id":"u_fc_poi_school.707","geometry":{"type":"Point","coordinates":[8.689404,11.97794]},"geometry_name":"geom","properties":{"state_code":"KN","source":"NMIS","name":"Rigar Yamma Islamiyya School","ward_code":"KN4312","category":"Primary","subtype":"Primary","management":"Public","education":"Religious","poi_type":"School","no_of_teachers":null,"no_of_students":null,"global_id":"01c81cba-db84-4566-9cd2-47320396f76b"}},{"type":"Feature","id":"u_fc_poi_school.784","geometry":{"type":"Point","coordinates":[7.7091809,11.056242]},"geometry_name":"geom","properties":{"state_code":"KD","source":"OSGOF","name":"Islamiyya School","ward_code":"KD2307","category":"Other","subtype":"Standard","management":"Faith Based","education":"Religious","poi_type":"School","no_of_teachers":null,"no_of_students":null,"global_id":"01f5ae71-09f5-4557-8bdc-bc899838c714"}},{"type":"Feature","id":"u_fc_poi_school.831","geometry":{"type":"Point","coordinates":[8.22067,12.34763]},"geometry_name":"geom","properties":{"state_code":"KN","source":"NMIS","name":"Waire Islamiyya School","ward_code":"KN0510","category":"Primary","subtype":"Primary","management":"Public","education":"Religious","poi_type":"School","no_of_teachers":null,"no_of_students":null,"global_id":"021570c1-8365-4cdd-b7bb-0b3e20bfc7cb"}},{"type":"Feature","id":"u_fc_poi_school.874","geometry":{"type":"Point","coordinates":[8.86926,9.899453]},"geometry_name":"geom","properties":{"state_code":"PL","source":"NMIS","name":"Arabic Foundation Private School","ward_code":"PLSJJN19","category":"Primary","subtype":"Standard","management":"Private","education":"Religious","poi_type":"School","no_of_teachers":null,"no_of_students":null,"global_id":"023466e5-d353-4ece-8149-d04b9704b61e"}},{"type":"Feature","id":"u_fc_poi_school.955","geometry":{"type":"Point","coordinates":[8.4244,12.87178]},"geometry_name":"geom","properties":{"state_code":"KT","source":"OSGOF","name":"Isamiyya Primary School","ward_code":"43304","category":"Primary","subtype":"Standard","management":"Faith Based","education":"Religious","poi_type":"School","no_of_teachers":null,"no_of_students":null,"global_id":"02686dc3-9c23-4d71-8837-1d0c1cce2df4"}},{"type":"Feature","id":"u_fc_poi_school.969","geometry":{"type":"Point","coordinates":[8.546678,11.85349]},"geometry_name":"geom","properties":{"state_code":"KN","source":"NMIS","name":"Sani Shehu Maihula Islamiya School","ward_code":"KN0909","category":"Primary","subtype":"Primary","management":"Public","education":"Religious","poi_type":"School","no_of_teachers":null,"no_of_students":null,"global_id":"02761a5c-ea8c-4195-bc2a-52afd2f8a768"}},{"type":"Feature","id":"u_fc_poi_school.998","geometry":{"type":"Point","coordinates":[9.8657036,11.3768959]},"geometry_name":"geom","properties":{"state_code":"JI","source":"NMIS","name":"Government Day Junior Arabic Secondary School Jikas","ward_code":"JI1108","category":"Secondary","subtype":"Junior","management":"Public","education":"Religious","poi_type":"School","no_of_teachers":null,"no_of_students":null,"global_id":"02878835-fc99-4a17-8db6-124125b193a5"}},{"type":"Feature","id":"u_fc_poi_school.1011","geometry":{"type":"Point","coordinates":[8.422512,11.77555]},"geometry_name":"geom","properties":{"state_code":"KN","source":"NMIS","name":"Government Girls Arabic Secondary School Tanawa","ward_code":"KN2701","category":"Secondary","subtype":"Standard","management":"Public","education":"Religious","poi_type":"School","no_of_teachers":null,"no_of_students":null,"global_id":"0291f509-3705-49b4-8733-d21e2961eda3"}},{"type":"Feature","id":"u_fc_poi_school.1020","geometry":{"type":"Point","coordinates":[7.9488067,12.4264932]},"geometry_name":"geom","properties":{"state_code":"KT","source":"OSGOF","name":"Isilamiyya School 1","ward_code":"42307","category":"Other","subtype":"Standard","management":"Faith Based","education":"Religious","poi_type":"School","no_of_teachers":null,"no_of_students":null,"global_id":"02993d15-f057-467f-b887-1b1578a8c6a7"}},{"type":"Feature","id":"u_fc_poi_school.1050","geometry":{"type":"Point","coordinates":[8.679768,11.87983]},"geometry_name":"geom","properties":{"state_code":"KN","source":"NMIS","name":"Zogarawa Islamiyya","ward_code":"KN0915","category":"Primary","subtype":"Primary","management":"Public","education":"Religious","poi_type":"School","no_of_teachers":null,"no_of_students":null,"global_id":"02ab7ea1-6a7d-455e-b231-c0cd4703394e"}},{"type":"Feature","id":"u_fc_poi_school.1110","geometry":{"type":"Point","coordinates":[7.2503481,12.1995575]},"geometry_name":"geom","properties":{"state_code":"KT","source":"NMIS","name":"Nurul Huda Islamiya","ward_code":"40907","category":"Primary","subtype":"Primary","management":"Public","education":"Religious","poi_type":"School","no_of_teachers":null,"no_of_students":null,"global_id":"02c94758-f4c0-40a4-9bb6-7821f4e7120c"}},{"type":"Feature","id":"u_fc_poi_school.1186","geometry":{"type":"Point","coordinates":[8.400259,11.24642]},"geometry_name":"geom","properties":{"state_code":"KN","source":"NMIS","name":"Kulafaurrashidin Islamiyya","ward_code":"KN4110","category":"Primary","subtype":"Primary","management":"Public","education":"Religious","poi_type":"School","no_of_teachers":null,"no_of_students":null,"global_id":"02f0301d-bfc4-49ee-baaa-a514cbe15c47"}},{"type":"Feature","id":"u_fc_poi_school.1229","geometry":{"type":"Point","coordinates":[8.633482,10.70059]},"geometry_name":"geom","properties":{"state_code":"KN","source":"NMIS","name":"Madara Satul Qiraatul Quran","ward_code":"KN1101","category":"Primary","subtype":"Primary","management":"Public","education":"Religious","poi_type":"School","no_of_teachers":null,"no_of_students":null,"global_id":"030bd05e-0cfb-4fc0-8c79-535d0d03877a"}},{"type":"Feature","id":"u_fc_poi_school.1274","geometry":{"type":"Point","coordinates":[8.696403,12.02148]},"geometry_name":"geom","properties":{"state_code":"KN","source":"NMIS","name":"Nurul Quran Islamiyya Jogana","ward_code":"KN1704","category":"Primary","subtype":"Standard","management":"Public","education":"Religious","poi_type":"School","no_of_teachers":null,"no_of_students":null,"global_id":"032e68dd-0632-4983-a72c-d1f705c3cc69"}},{"type":"Feature","id":"u_fc_poi_school.1298","geometry":{"type":"Point","coordinates":[7.7100015,12.8512458]},"geometry_name":"geom","properties":{"state_code":"KT","source":"NMIS","name":"Makarantar Malam Idi Yar Ya","ward_code":"43008","category":"Primary","subtype":"Primary","management":"Public","education":"Religious","poi_type":"School","no_of_teachers":null,"no_of_students":null,"global_id":"03403bd2-e5dc-41c7-9942-61eca1fdc65e"}},{"type":"Feature","id":"u_fc_poi_school.1321","geometry":{"type":"Point","coordinates":[7.931091,12.18284]},"geometry_name":"geom","properties":{"state_code":"KN","source":"NMIS","name":"Sani Mukaddas Islamiyya School","ward_code":"KN3503","category":"Primary","subtype":"Primary","management":"Public","education":"Religious","poi_type":"School","no_of_teachers":null,"no_of_students":null,"global_id":"035173ad-16cc-4f49-8707-4085513b1abf"}},{"type":"Feature","id":"u_fc_poi_school.1329","geometry":{"type":"Point","coordinates":[6.48797,12.81203]},"geometry_name":"geom","properties":{"state_code":"ZA","source":"OSGOF","name":"Islamiya School Sabon Gari Guri Gidan Makera","ward_code":"81402","category":"Other","subtype":"Standard","management":"Faith Based","education":"Religious","poi_type":"School","no_of_teachers":null,"no_of_students":null,"global_id":"03563823-6f45-492d-8c3f-5608d1d87e5f"}},{"type":"Feature","id":"u_fc_poi_school.1422","geometry":{"type":"Point","coordinates":[7.6565707,12.8728345]},"geometry_name":"geom","properties":{"state_code":"KT","source":"NMIS","name":"Makarantar Alaramma Garba","ward_code":"43001","category":"Primary","subtype":"Primary","management":"Public","education":"Religious","poi_type":"School","no_of_teachers":null,"no_of_students":null,"global_id":"0391c7ae-c853-4c5a-933c-4edc9bfd2c2c"}},{"type":"Feature","id":"u_fc_poi_school.1454","geometry":{"type":"Point","coordinates":[9.000907,11.85999]},"geometry_name":"geom","properties":{"state_code":"KN","source":"NMIS","name":"Siyanatu Islamiyya","ward_code":"KN1605","category":"Primary","subtype":"Primary","management":"Public","education":"Religious","poi_type":"School","no_of_teachers":null,"no_of_students":null,"global_id":"03a482b7-5712-4119-b8c5-83c841198a44"}},{"type":"Feature","id":"u_fc_poi_school.1472","geometry":{"type":"Point","coordinates":[8.687602,11.92965]},"geometry_name":"geom","properties":{"state_code":"KN","source":"NMIS","name":"Yartofa Islamiyya School","ward_code":"KN4308","category":"Primary","subtype":"Primary","management":"Public","education":"Religious","poi_type":"School","no_of_teachers":null,"no_of_students":null,"global_id":"03ae833d-c365-4232-af6f-6e880685ef78"}},{"type":"Feature","id":"u_fc_poi_school.1473","geometry":{"type":"Point","coordinates":[7.9078662,12.3725993]},"geometry_name":"geom","properties":{"state_code":"KT","source":"NMIS","name":"Kauyen Dambo Islamiyya","ward_code":"42309","category":"Primary","subtype":"Primary","management":"Public","education":"Religious","poi_type":"School","no_of_teachers":null,"no_of_students":null,"global_id":"03ae8d6d-3d0e-4d85-9cf1-c86a434dbd5a"}},{"type":"Feature","id":"u_fc_poi_school.1558","geometry":{"type":"Point","coordinates":[8.412969,11.83081]},"geometry_name":"geom","properties":{"state_code":"KN","source":"NMIS","name":"Tsakwa Islamiyya","ward_code":"KN2809","category":"Primary","subtype":"Primary","management":"Public","education":"Religious","poi_type":"School","no_of_teachers":null,"no_of_students":null,"global_id":"03e4368e-198c-4f68-91d9-07e231489c69"}},{"type":"Feature","id":"u_fc_poi_school.1575","geometry":{"type":"Point","coordinates":[8.702484,11.69834]},"geometry_name":"geom","properties":{"state_code":"KN","source":"NMIS","name":"Government Girls Secondary Islamic School","ward_code":"KN0609","category":"Secondary","subtype":"Standard","management":"Public","education":"Religious","poi_type":"School","no_of_teachers":null,"no_of_students":null,"global_id":"03ef74cf-0c1a-4fe4-b135-c647e1902378"}},{"type":"Feature","id":"u_fc_poi_school.1585","geometry":{"type":"Point","coordinates":[9.107747,11.41916]},"geometry_name":"geom","properties":{"state_code":"KN","source":"NMIS","name":"Tururu Islamiyya","ward_code":"KN3704","category":"Primary","subtype":"Primary","management":"Public","education":"Religious","poi_type":"School","no_of_teachers":null,"no_of_students":null,"global_id":"03f619d7-0de1-4019-9e89-ec603b07eb1f"}},{"type":"Feature","id":"u_fc_poi_school.1586","geometry":{"type":"Point","coordinates":[8.67296,11.95765]},"geometry_name":"geom","properties":{"state_code":"KN","source":"NMIS","name":"Yandadi Islamiyya School","ward_code":"KN4311","category":"Primary","subtype":"Primary","management":"Public","education":"Religious","poi_type":"School","no_of_teachers":null,"no_of_students":null,"global_id":"03f61b8a-76eb-4e11-b35d-fb5e438ebe86"}},{"type":"Feature","id":"u_fc_poi_school.1651","geometry":{"type":"Point","coordinates":[8.454683,11.89545]},"geometry_name":"geom","properties":{"state_code":"KN","source":"NMIS","name":"Ishaq Quranic School","ward_code":"KN2511","category":"Primary","subtype":"Primary","management":"Public","education":"Religious","poi_type":"School","no_of_teachers":null,"no_of_students":null,"global_id":"04162dbd-f998-4bbd-a1e6-01331de1a1c7"}},{"type":"Feature","id":"u_fc_poi_school.1662","geometry":{"type":"Point","coordinates":[8.267201,11.79046]},"geometry_name":"geom","properties":{"state_code":"KN","source":"NMIS","name":"Toka Islamiyya","ward_code":"KN2802","category":"Primary","subtype":"Primary","management":"Public","education":"Religious","poi_type":"School","no_of_teachers":null,"no_of_students":null,"global_id":"0419b92e-f037-444b-8b07-dde336a12ead"}},{"type":"Feature","id":"u_fc_poi_school.1822","geometry":{"type":"Point","coordinates":[8.907964,11.77893]},"geometry_name":"geom","properties":{"state_code":"KN","source":"NMIS","name":"Malamawa Islamiyya","ward_code":"KN1610","category":"Primary","subtype":"Primary","management":"Public","education":"Religious","poi_type":"School","no_of_teachers":null,"no_of_students":null,"global_id":"04822f12-467c-4a2d-b031-828bbf61597c"}},{"type":"Feature","id":"u_fc_poi_school.1876","geometry":{"type":"Point","coordinates":[4.5198606,13.2755937]},"geometry_name":"geom","properties":{"state_code":"SO","source":"NMIS","name":"Karfen Sarki Quranic Primary School","ward_code":"60607","category":"Primary","subtype":"Primary","management":"Private","education":"Religious","poi_type":"School","no_of_teachers":null,"no_of_students":null,"global_id":"04a3337f-2333-443a-8321-d9460810536a"}},{"type":"Feature","id":"u_fc_poi_school.1891","geometry":{"type":"Point","coordinates":[6.82582,11.84559]},"geometry_name":"geom","properties":{"state_code":"ZA","source":"OSGOF","name":"Islamiya School Unguwar Madawaki","ward_code":"81305","category":"Other","subtype":"Standard","management":"Faith Based","education":"Religious","poi_type":"School","no_of_teachers":null,"no_of_students":null,"global_id":"04aad4e5-8884-4caf-bb1f-274fed53e1af"}},{"type":"Feature","id":"u_fc_poi_school.1955","geometry":{"type":"Point","coordinates":[8.581635,11.54417]},"geometry_name":"geom","properties":{"state_code":"KN","source":"NMIS","name":"TaAzimul Islamiyya Chakwaya","ward_code":"KN3201","category":"Primary","subtype":"Primary","management":"Public","education":"Religious","poi_type":"School","no_of_teachers":null,"no_of_students":null,"global_id":"04cc3481-43cc-41a8-b61d-2386eb95ba32"}},{"type":"Feature","id":"u_fc_poi_school.1964","geometry":{"type":"Point","coordinates":[8.920519,11.81911]},"geometry_name":"geom","properties":{"state_code":"KN","source":"NMIS","name":"Nurul Huda Islamiyya","ward_code":"KN1610","category":"Primary","subtype":"Primary","management":"Public","education":"Religious","poi_type":"School","no_of_teachers":null,"no_of_students":null,"global_id":"04d46371-8de1-455c-8989-7f57a252a8f8"}},{"type":"Feature","id":"u_fc_poi_school.1965","geometry":{"type":"Point","coordinates":[8.167335,12.44058]},"geometry_name":"geom","properties":{"state_code":"KN","source":"NMIS","name":"U Gyartai Islamiyal","ward_code":"KN2601","category":"Primary","subtype":"Primary","management":"Public","education":"Religious","poi_type":"School","no_of_teachers":null,"no_of_students":null,"global_id":"04d4ff4d-ee88-4a44-a7f4-2b26aed65956"}},{"type":"Feature","id":"u_fc_poi_school.2005","geometry":{"type":"Point","coordinates":[8.012044,11.78434]},"geometry_name":"geom","properties":{"state_code":"KN","source":"NMIS","name":"Karaye Tahfizul Quran","ward_code":"KN2205","category":"Primary","subtype":"Primary","management":"Public","education":"Religious","poi_type":"School","no_of_teachers":null,"no_of_students":null,"global_id":"04edcaf9-ab7c-4370-8c9f-7650007ac223"}},{"type":"Feature","id":"u_fc_poi_school.2066","geometry":{"type":"Point","coordinates":[6.30755,8.77211]},"geometry_name":"geom","properties":{"state_code":"NI","source":"OSGOF","name":"Snr Islamic Secondary School Katcha 1","ward_code":"NISKHA08","category":"Other","subtype":"Standard","management":"Faith Based","education":"Religious","poi_type":"School","no_of_teachers":null,"no_of_students":null,"global_id":"0507f64c-c1cf-4342-ac73-e97c64671dd9"}},{"type":"Feature","id":"u_fc_poi_school.2133","geometry":{"type":"Point","coordinates":[8.788821,12.02175]},"geometry_name":"geom","properties":{"state_code":"KN","source":"NMIS","name":"Nurul Huda Islamiyya Kankan","ward_code":"KN1709","category":"Primary","subtype":"Primary","management":"Public","education":"Religious","poi_type":"School","no_of_teachers":null,"no_of_students":null,"global_id":"0535dd44-23da-415d-85b6-733b6c77ad38"}},{"type":"Feature","id":"u_fc_poi_school.2153","geometry":{"type":"Point","coordinates":[8.542648,11.97261]},"geometry_name":"geom","properties":{"state_code":"KN","source":"NMIS","name":"Madinatul Ahbab Wattalamiz Islamiyya","ward_code":"KN3804","category":"Primary","subtype":"Primary","management":"Public","education":"Religious","poi_type":"School","no_of_teachers":null,"no_of_students":null,"global_id":"0541727c-4854-46d3-b47a-8223bd8320d8"}},{"type":"Feature","id":"u_fc_poi_school.2193","geometry":{"type":"Point","coordinates":[5.3312076,13.1280115]},"geometry_name":"geom","properties":{"state_code":"SO","source":"NMIS","name":"Ihyaul Sunnah Islamiyya School","ward_code":"62202","category":"Primary","subtype":"Primary","management":"Public","education":"Religious","poi_type":"School","no_of_teachers":null,"no_of_students":null,"global_id":"05580ff6-a7ac-4971-a713-36e39e0f10fa"}},{"type":"Feature","id":"u_fc_poi_school.2384","geometry":{"type":"Point","coordinates":[4.9355828,13.3683938]},"geometry_name":"geom","properties":{"state_code":"SO","source":"NMIS","name":"Mallam Isa Islamiyya","ward_code":"61910","category":"Primary","subtype":"Primary","management":"Public","education":"Religious","poi_type":"School","no_of_teachers":null,"no_of_students":null,"global_id":"05dc5736-f2f0-430b-8e04-ac2652824227"}},{"type":"Feature","id":"u_fc_poi_school.2445","geometry":{"type":"Point","coordinates":[7.950202,12.30806]},"geometry_name":"geom","properties":{"state_code":"KN","source":"NMIS","name":"Kwandawa Islamiyya Primary","ward_code":"KN4008","category":"Primary","subtype":"Primary","management":"Public","education":"Religious","poi_type":"School","no_of_teachers":null,"no_of_students":null,"global_id":"05fe20c7-21a9-4ddd-88a3-f02bb4d98793"}},{"type":"Feature","id":"u_fc_poi_school.2471","geometry":{"type":"Point","coordinates":[7.990714,12.05094]},"geometry_name":"geom","properties":{"state_code":"KN","source":"NMIS","name":"Ya Musa Quran And Islamiyya","ward_code":"KN3509","category":"Primary","subtype":"Standard","management":"Public","education":"Religious","poi_type":"School","no_of_teachers":null,"no_of_students":null,"global_id":"060d866f-ff05-41e5-9e92-32499aa6ecb1"}},{"type":"Feature","id":"u_fc_poi_school.2484","geometry":{"type":"Point","coordinates":[8.01764,12.18655]},"geometry_name":"geom","properties":{"state_code":"KN","source":"NMIS","name":"Government Girls Junior Arabic Secondary School Dunbulum","ward_code":"KN4002","category":"Secondary","subtype":"Junior","management":"Public","education":"Religious","poi_type":"School","no_of_teachers":null,"no_of_students":null,"global_id":"0613ecfa-a823-4f63-bbad-ead28ad0bfb3"}},{"type":"Feature","id":"u_fc_poi_school.2586","geometry":{"type":"Point","coordinates":[8.533155,12.22414]},"geometry_name":"geom","properties":{"state_code":"KN","source":"NMIS","name":"Ibadurrahman Islamiyya Primary School","ward_code":"KN3004","category":"Primary","subtype":"Primary","management":"Public","education":"Religious","poi_type":"School","no_of_teachers":null,"no_of_students":null,"global_id":"0649fec4-c335-459f-9589-2e9fa6f695cf"}},{"type":"Feature","id":"u_fc_poi_school.2606","geometry":{"type":"Point","coordinates":[8.262754,11.66893]},"geometry_name":"geom","properties":{"state_code":"KN","source":"NMIS","name":"Dansadau Islamiya Primary School","ward_code":"KN0403","category":"Primary","subtype":"Standard","management":"Public","education":"Religious","poi_type":"School","no_of_teachers":null,"no_of_students":null,"global_id":"0659645e-6ade-4f71-865e-b131a6aa3508"}},{"type":"Feature","id":"u_fc_poi_school.2663","geometry":{"type":"Point","coordinates":[8.10356,6.331746]},"geometry_name":"geom","properties":{"state_code":"EB","source":"NMIS","name":"Prebyterian Montessorris Nursery and Primary School","ward_code":"EBSUGB10","category":"Primary","subtype":"Standard","management":"Private","education":"Religious","poi_type":"School","no_of_teachers":null,"no_of_students":null,"global_id":"067d181c-4d8e-4551-94a4-2b0a778a6c34"}},{"type":"Feature","id":"u_fc_poi_school.2759","geometry":{"type":"Point","coordinates":[7.2126853,9.1091198]},"geometry_name":"geom","properties":{"state_code":"FC","source":"NMIS","name":"Al Hilal Academy","ward_code":"FCTGWA05","category":"Primary","subtype":"Standard","management":"Private","education":"Religious","poi_type":"School","no_of_teachers":null,"no_of_students":null,"global_id":"06b2aed0-744f-41c6-9079-022238d4bc70"}},{"type":"Feature","id":"u_fc_poi_school.2803","geometry":{"type":"Point","coordinates":[9.163492,11.47944]},"geometry_name":"geom","properties":{"state_code":"KN","source":"NMIS","name":"Salmande Islamiyya","ward_code":"KN3704","category":"Primary","subtype":"Primary","management":"Public","education":"Religious","poi_type":"School","no_of_teachers":null,"no_of_students":null,"global_id":"06d3b7fc-c878-4a86-9869-d06397d41216"}},{"type":"Feature","id":"u_fc_poi_school.2822","geometry":{"type":"Point","coordinates":[7.2597323,12.1918686]},"geometry_name":"geom","properties":{"state_code":"KT","source":"NMIS","name":"Madarasatul Nurul Islam Falale","ward_code":"40907","category":"Primary","subtype":"Primary","management":"Public","education":"Religious","poi_type":"School","no_of_teachers":null,"no_of_students":null,"global_id":"06dd777c-d609-49d9-919c-2c4658e1c5e3"}},{"type":"Feature","id":"u_fc_poi_school.2874","geometry":{"type":"Point","coordinates":[9.137343,11.6558]},"geometry_name":"geom","properties":{"state_code":"KN","source":"NMIS","name":"Shambara Islamiyya School","ward_code":"KN0201","category":"Primary","subtype":"Primary","management":"Public","education":"Religious","poi_type":"School","no_of_teachers":null,"no_of_students":null,"global_id":"06ffcd93-580f-44ea-b620-738217c02eea"}},{"type":"Feature","id":"u_fc_poi_school.2880","geometry":{"type":"Point","coordinates":[8.524904,11.78189]},"geometry_name":"geom","properties":{"state_code":"KN","source":"NMIS","name":"Sawaika Islamiyya","ward_code":"KN2702","category":"Primary","subtype":"Primary","management":"Public","education":"Religious","poi_type":"School","no_of_teachers":null,"no_of_students":null,"global_id":"07049fb3-953e-4ead-b5b6-48d5cb11797c"}},{"type":"Feature","id":"u_fc_poi_school.2897","geometry":{"type":"Point","coordinates":[7.6608586,12.8691736]},"geometry_name":"geom","properties":{"state_code":"KT","source":"NMIS","name":"Makarantar Malam Basiru","ward_code":"43001","category":"Primary","subtype":"Primary","management":"Public","education":"Religious","poi_type":"School","no_of_teachers":null,"no_of_students":null,"global_id":"070ec011-8eb1-4b92-828b-daf96196fca8"}},{"type":"Feature","id":"u_fc_poi_school.2905","geometry":{"type":"Point","coordinates":[8.424257,11.76766]},"geometry_name":"geom","properties":{"state_code":"KN","source":"NMIS","name":"Quran Model","ward_code":"KN2707","category":"Primary","subtype":"Primary","management":"Public","education":"Religious","poi_type":"School","no_of_teachers":null,"no_of_students":null,"global_id":"071342d2-eb4e-4a29-a32c-f7be3ebd8b86"}},{"type":"Feature","id":"u_fc_poi_school.2911","geometry":{"type":"Point","coordinates":[9.078502,11.94841]},"geometry_name":"geom","properties":{"state_code":"KN","source":"NMIS","name":"Irshadul Adafal Islamiyya","ward_code":"KN0108","category":"Primary","subtype":"Primary","management":"Public","education":"Religious","poi_type":"School","no_of_teachers":null,"no_of_students":null,"global_id":"0717330e-8731-43ce-8036-5b11b2807c1b"}},{"type":"Feature","id":"u_fc_poi_school.2956","geometry":{"type":"Point","coordinates":[8.612889,11.80941]},"geometry_name":"geom","properties":{"state_code":"KN","source":"NMIS","name":"Madarasatul Tahzibul Aulad Islamiyya","ward_code":"KN0910","category":"Primary","subtype":"Primary","management":"Public","education":"Religious","poi_type":"School","no_of_teachers":null,"no_of_students":null,"global_id":"07322e1d-f7b2-4c92-9e02-da808739477b"}},{"type":"Feature","id":"u_fc_poi_school.3012","geometry":{"type":"Point","coordinates":[8.597724,11.83991]},"geometry_name":"geom","properties":{"state_code":"KN","source":"NMIS","name":"Khajijatul Kubra Islamiyya","ward_code":"KN0903","category":"Primary","subtype":"Primary","management":"Public","education":"Religious","poi_type":"School","no_of_teachers":null,"no_of_students":null,"global_id":"075b4d2e-f8f8-4e0a-b97e-574acd731d43"}},{"type":"Feature","id":"u_fc_poi_school.3022","geometry":{"type":"Point","coordinates":[5.4916674,13.7664539]},"geometry_name":"geom","properties":{"state_code":"SO","source":"NMIS","name":"Makarantar Mallam Dan Aja","ward_code":"60406","category":"Primary","subtype":"Pre Primary","management":"Private","education":"Religious","poi_type":"School","no_of_teachers":null,"no_of_students":null,"global_id":"07617116-6820-4f2f-9e2e-0dc60869f52c"}},{"type":"Feature","id":"u_fc_poi_school.3026","geometry":{"type":"Point","coordinates":[8.054365,12.41277]},"geometry_name":"geom","properties":{"state_code":"KN","source":"NMIS","name":"Baujawa Islamiyya School","ward_code":"KN4005","category":"Primary","subtype":"Primary","management":"Public","education":"Religious","poi_type":"School","no_of_teachers":null,"no_of_students":null,"global_id":"076496f7-de99-45c5-8f67-2e645729cc1d"}},{"type":"Feature","id":"u_fc_poi_school.3065","geometry":{"type":"Point","coordinates":[6.51644,12.86524]},"geometry_name":"geom","properties":{"state_code":"ZA","source":"OSGOF","name":"Madarasatul Islamiya Alawa","ward_code":"81408","category":"Other","subtype":"Standard","management":"Faith Based","education":"Religious","poi_type":"School","no_of_teachers":null,"no_of_students":null,"global_id":"077cf083-30b4-4c5d-933f-bdd77b9b1935"}},{"type":"Feature","id":"u_fc_poi_school.3254","geometry":{"type":"Point","coordinates":[8.870623,9.900031]},"geometry_name":"geom","properties":{"state_code":"PL","source":"NMIS","name":"Madarasatul Nurul Islam","ward_code":"PLSJJN19","category":"Primary","subtype":"Primary","management":"Private","education":"Religious","poi_type":"School","no_of_teachers":null,"no_of_students":null,"global_id":"08067ddc-54ee-40ab-90a8-33924ac78a91"}},{"type":"Feature","id":"u_fc_poi_school.3263","geometry":{"type":"Point","coordinates":[8.22263,12.0336]},"geometry_name":"geom","properties":{"state_code":"KN","source":"NMIS","name":"Mallam Lawan Quranic School","ward_code":"KN0306","category":"Primary","subtype":"Primary","management":"Public","education":"Religious","poi_type":"School","no_of_teachers":null,"no_of_students":null,"global_id":"080acacb-e05e-46db-956f-310f2c5ae07e"}},{"type":"Feature","id":"u_fc_poi_school.3336","geometry":{"type":"Point","coordinates":[8.474086,11.99494]},"geometry_name":"geom","properties":{"state_code":"KN","source":"NMIS","name":"Nana Aisha Islamiyya","ward_code":"KN1808","category":"Primary","subtype":"Primary","management":"Public","education":"Religious","poi_type":"School","no_of_teachers":null,"no_of_students":null,"global_id":"0839d086-db37-4b49-87c9-74cfd1317ba2"}},{"type":"Feature","id":"u_fc_poi_school.3368","geometry":{"type":"Point","coordinates":[7.9405349,12.3954516]},"geometry_name":"geom","properties":{"state_code":"KT","source":"NMIS","name":"Damari Islamiya School","ward_code":"42309","category":"Primary","subtype":"Primary","management":"Public","education":"Religious","poi_type":"School","no_of_teachers":null,"no_of_students":null,"global_id":"084c3ee4-52c0-416d-80c7-80c536d000dc"}},{"type":"Feature","id":"u_fc_poi_school.3392","geometry":{"type":"Point","coordinates":[7.6613924,12.8766009]},"geometry_name":"geom","properties":{"state_code":"KT","source":"NMIS","name":"Makarantar Alhaji Ibrahim Kayi","ward_code":"43001","category":"Primary","subtype":"Primary","management":"Public","education":"Religious","poi_type":"School","no_of_teachers":null,"no_of_students":null,"global_id":"08583831-00f6-4f4a-b462-321b3f4982f6"}},{"type":"Feature","id":"u_fc_poi_school.3405","geometry":{"type":"Point","coordinates":[8.992675,11.86383]},"geometry_name":"geom","properties":{"state_code":"KN","source":"NMIS","name":"Isah Quran School","ward_code":"KN1604","category":"Primary","subtype":"Primary","management":"Public","education":"Religious","poi_type":"School","no_of_teachers":null,"no_of_students":null,"global_id":"08615f71-adc3-4421-973e-dc57e3fcf228"}},{"type":"Feature","id":"u_fc_poi_school.3426","geometry":{"type":"Point","coordinates":[9.0598421,12.4967546]},"geometry_name":"geom","properties":{"state_code":"JI","source":"NMIS","name":"Tagwaye Sabuwa Islamiyya","ward_code":"JI0807","category":"Primary","subtype":"Pre Primary","management":"Private","education":"Religious","poi_type":"School","no_of_teachers":null,"no_of_students":null,"global_id":"086f6ac8-6bf4-41da-9bee-d64d85a008a1"}},{"type":"Feature","id":"u_fc_poi_school.3442","geometry":{"type":"Point","coordinates":[11.20478,10.26852]},"geometry_name":"geom","properties":{"state_code":"GO","source":"OSGOF","name":"Mad Nurul Islam School","ward_code":"GMSAKK02","category":"Other","subtype":"Standard","management":"Faith Based","education":"Religious","poi_type":"School","no_of_teachers":null,"no_of_students":null,"global_id":"087b84a2-f6e0-4b8b-bea0-173d5b1cb3da"}},{"type":"Feature","id":"u_fc_poi_school.3451","geometry":{"type":"Point","coordinates":[12.029363,9.471026]},"geometry_name":"geom","properties":{"state_code":"AD","source":"NMIS","name":"Anwaru Islam","ward_code":"ADSNUM08","category":"Primary","subtype":"Standard","management":"Private","education":"Religious","poi_type":"School","no_of_teachers":null,"no_of_students":null,"global_id":"08832a5c-5df4-44b3-9e44-be290dd2c246"}},{"type":"Feature","id":"u_fc_poi_school.3517","geometry":{"type":"Point","coordinates":[8.31279,12.40145]},"geometry_name":"geom","properties":{"state_code":"KN","source":"NMIS","name":"Kargon Kunchi Islamiyya","ward_code":"KN2603","category":"Primary","subtype":"Primary","management":"Public","education":"Religious","poi_type":"School","no_of_teachers":null,"no_of_students":null,"global_id":"08b6c499-d15c-4e5c-abdb-1075ba09b0d9"}},{"type":"Feature","id":"u_fc_poi_school.3592","geometry":{"type":"Point","coordinates":[8.661377,11.62823]},"geometry_name":"geom","properties":{"state_code":"KN","source":"NMIS","name":"Taa Zeem Islamiyya Rinji","ward_code":"KN3203","category":"Primary","subtype":"Primary","management":"Public","education":"Religious","poi_type":"School","no_of_teachers":null,"no_of_students":null,"global_id":"08e2ce53-9a9f-4f75-8310-1f20f0fbe37a"}},{"type":"Feature","id":"u_fc_poi_school.3630","geometry":{"type":"Point","coordinates":[9.257745,11.54182]},"geometry_name":"geom","properties":{"state_code":"KN","source":"NMIS","name":"Government Girls Arabic Secondary School S Kachako","ward_code":"KN3706","category":"Secondary","subtype":"Standard","management":"Public","education":"Religious","poi_type":"School","no_of_teachers":null,"no_of_students":null,"global_id":"08f95a81-3173-4ae4-9f52-3365417eb153"}},{"type":"Feature","id":"u_fc_poi_school.3641","geometry":{"type":"Point","coordinates":[8.557787,11.97066]},"geometry_name":"geom","properties":{"state_code":"KN","source":"NMIS","name":"Imam Malik Islamiyya","ward_code":"KN3803","category":"Primary","subtype":"Primary","management":"Public","education":"Religious","poi_type":"School","no_of_teachers":null,"no_of_students":null,"global_id":"08fed671-3590-45f5-adba-215e666faebb"}},{"type":"Feature","id":"u_fc_poi_school.3659","geometry":{"type":"Point","coordinates":[11.11206,11.16167]},"geometry_name":"geom","properties":{"state_code":"GO","source":"OSGOF","name":"Adullahi Islamic School","ward_code":"GMSNFD07","category":"Other","subtype":"Standard","management":"Faith Based","education":"Religious","poi_type":"School","no_of_teachers":null,"no_of_students":null,"global_id":"090c075f-5690-45bf-88f0-b0528ddb0408"}},{"type":"Feature","id":"u_fc_poi_school.3731","geometry":{"type":"Point","coordinates":[8.558983,11.97264]},"geometry_name":"geom","properties":{"state_code":"KN","source":"NMIS","name":"Riyadul Quran Islamiyya","ward_code":"KN3803","category":"Primary","subtype":"Standard","management":"Public","education":"Religious","poi_type":"School","no_of_teachers":null,"no_of_students":null,"global_id":"093a53ed-84f5-4a75-9521-fff2dd02ee5c"}},{"type":"Feature","id":"u_fc_poi_school.3764","geometry":{"type":"Point","coordinates":[6.81665,12.91547]},"geometry_name":"geom","properties":{"state_code":"ZA","source":"OSGOF","name":"Makarantar Liman Islamiya Jemawa","ward_code":"81407","category":"Other","subtype":"Standard","management":"Faith Based","education":"Religious","poi_type":"School","no_of_teachers":null,"no_of_students":null,"global_id":"094b5827-d475-43af-8de4-49329636a01c"}},{"type":"Feature","id":"u_fc_poi_school.3798","geometry":{"type":"Point","coordinates":[6.3570833,13.4688885]},"geometry_name":"geom","properties":{"state_code":"SO","source":"NMIS","name":"Marjaa U Sunna School","ward_code":"61309","category":"Primary","subtype":"Pre Primary","management":"Public","education":"Religious","poi_type":"School","no_of_teachers":null,"no_of_students":null,"global_id":"09615f91-2335-4e89-a5e4-9347ceefe81f"}},{"type":"Feature","id":"u_fc_poi_school.3825","geometry":{"type":"Point","coordinates":[8.0477049,12.5186429]},"geometry_name":"geom","properties":{"state_code":"KT","source":"NMIS","name":"Mawashi Islamic School","ward_code":"42308","category":"Primary","subtype":"Primary","management":"Public","education":"Religious","poi_type":"School","no_of_teachers":null,"no_of_students":null,"global_id":"0971146d-6564-479c-a6de-aeb37420c531"}},{"type":"Feature","id":"u_fc_poi_school.3828","geometry":{"type":"Point","coordinates":[8.531544,11.8725]},"geometry_name":"geom","properties":{"state_code":"KN","source":"NMIS","name":"Kofar Fada Islamiyya","ward_code":"KN0909","category":"Primary","subtype":"Primary","management":"Public","education":"Religious","poi_type":"School","no_of_teachers":null,"no_of_students":null,"global_id":"0973654d-c9e9-4f6a-b04d-390ba7c208ff"}},{"type":"Feature","id":"u_fc_poi_school.3832","geometry":{"type":"Point","coordinates":[7.952604,12.22206]},"geometry_name":"geom","properties":{"state_code":"KN","source":"NMIS","name":"Jaga Islamiyya","ward_code":"KN4010","category":"Primary","subtype":"Primary","management":"Public","education":"Religious","poi_type":"School","no_of_teachers":null,"no_of_students":null,"global_id":"09759c6f-7ebd-4b02-8415-7e5ee68e911b"}},{"type":"Feature","id":"u_fc_poi_school.3878","geometry":{"type":"Point","coordinates":[8.596905,11.70601]},"geometry_name":"geom","properties":{"state_code":"KN","source":"NMIS","name":"Gwamma Agalawa Primary School","ward_code":"KN0607","category":"Primary","subtype":"Primary","management":"Private","education":"Religious","poi_type":"School","no_of_teachers":null,"no_of_students":null,"global_id":"09933b8d-1f58-4b9c-9fea-e15d4c49605e"}},{"type":"Feature","id":"u_fc_poi_school.3897","geometry":{"type":"Point","coordinates":[8.522218,11.95521]},"geometry_name":"geom","properties":{"state_code":"KN","source":"NMIS","name":"Abdullahi Bin Abbas","ward_code":"KN2505","category":"Primary","subtype":"Primary","management":"Public","education":"Religious","poi_type":"School","no_of_teachers":null,"no_of_students":null,"global_id":"09a07339-a506-4e82-b455-3034bcd7f5da"}},{"type":"Feature","id":"u_fc_poi_school.3910","geometry":{"type":"Point","coordinates":[8.576208,11.97599]},"geometry_name":"geom","properties":{"state_code":"KN","source":"NMIS","name":"Ummah Salama Islamiyya","ward_code":"KN3106","category":"Primary","subtype":"Primary","management":"Public","education":"Religious","poi_type":"School","no_of_teachers":null,"no_of_students":null,"global_id":"09a6e539-5917-4e5a-89a4-75f743a94621"}},{"type":"Feature","id":"u_fc_poi_school.3983","geometry":{"type":"Point","coordinates":[8.100929,11.3650983]},"geometry_name":"geom","properties":{"state_code":"KD","source":"OSGOF","name":"St Paul Anglican Primary School","ward_code":"KD0505","category":"Primary","subtype":"Primary","management":"Faith Based","education":"Religious","poi_type":"School","no_of_teachers":null,"no_of_students":null,"global_id":"09cf4923-9a46-4ffc-b0b9-936a03b4529c"}},{"type":"Feature","id":"u_fc_poi_school.4054","geometry":{"type":"Point","coordinates":[8.1939302,13.129142]},"geometry_name":"geom","properties":{"state_code":"KT","source":"NMIS","name":"Islamiyya Buntusu","ward_code":"42403","category":"Primary","subtype":"Primary","management":"Public","education":"Religious","poi_type":"School","no_of_teachers":null,"no_of_students":null,"global_id":"09f951a5-c13d-4915-ae83-8c6d1ade9dd2"}},{"type":"Feature","id":"u_fc_poi_school.4138","geometry":{"type":"Point","coordinates":[7.6090522,12.9724223]},"geometry_name":"geom","properties":{"state_code":"KT","source":"NMIS","name":"Makarantar Malam Abdullahi Na Dada","ward_code":"42108","category":"Primary","subtype":"Primary","management":"Public","education":"Religious","poi_type":"School","no_of_teachers":null,"no_of_students":null,"global_id":"0a2a38e2-872e-438b-a1ae-ce5225e9df72"}},{"type":"Feature","id":"u_fc_poi_school.4288","geometry":{"type":"Point","coordinates":[7.70593,12.63889]},"geometry_name":"geom","properties":{"state_code":"KT","source":"OSGOF","name":"Kata Kalo Islamiya School","ward_code":"40605","category":"Other","subtype":"Standard","management":"Faith Based","education":"Religious","poi_type":"School","no_of_teachers":null,"no_of_students":null,"global_id":"0a8eea09-18b2-4241-9569-acffcf17f819"}},{"type":"Feature","id":"u_fc_poi_school.4329","geometry":{"type":"Point","coordinates":[9.006097,11.76399]},"geometry_name":"geom","properties":{"state_code":"KN","source":"NMIS","name":"Ihyudden Islamiyya Moda","ward_code":"KN1601","category":"Primary","subtype":"Primary","management":"Public","education":"Religious","poi_type":"School","no_of_teachers":null,"no_of_students":null,"global_id":"0aad81d0-7688-4f86-a928-e3886cf40aca"}},{"type":"Feature","id":"u_fc_poi_school.4363","geometry":{"type":"Point","coordinates":[8.403871,11.87274]},"geometry_name":"geom","properties":{"state_code":"KN","source":"NMIS","name":"Kwankwaso Sara Babba Nurul Islamiyya School","ward_code":"KN2809","category":"Primary","subtype":"Primary","management":"Public","education":"Religious","poi_type":"School","no_of_teachers":null,"no_of_students":null,"global_id":"0ac291d7-b6fa-4f30-8a1b-08ed629bb519"}},{"type":"Feature","id":"u_fc_poi_school.4641","geometry":{"type":"Point","coordinates":[8.674931,11.3941]},"geometry_name":"geom","properties":{"state_code":"KN","source":"NMIS","name":"Sabuwar Kasuwa Islamiyya","ward_code":"KN4103","category":"Primary","subtype":"Primary","management":"Public","education":"Religious","poi_type":"School","no_of_teachers":null,"no_of_students":null,"global_id":"0b74f884-480e-4381-b24e-3010b996d283"}},{"type":"Feature","id":"u_fc_poi_school.4735","geometry":{"type":"Point","coordinates":[8.3220358,12.6458502]},"geometry_name":"geom","properties":{"state_code":"JI","source":"NMIS","name":"Madarasatul Tarbiyyatul","ward_code":"JI2403","category":"Primary","subtype":"Pre Primary","management":"Private","education":"Religious","poi_type":"School","no_of_teachers":null,"no_of_students":null,"global_id":"0badbdb4-2076-48eb-8e57-3361bfda33fb"}},{"type":"Feature","id":"u_fc_poi_school.4782","geometry":{"type":"Point","coordinates":[8.658911,12.17872]},"geometry_name":"geom","properties":{"state_code":"KN","source":"NMIS","name":"Imamu Abubakar Tahafizul Quran Primary School","ward_code":"KN3007","category":"Primary","subtype":"Standard","management":"Public","education":"Religious","poi_type":"School","no_of_teachers":null,"no_of_students":null,"global_id":"0bcd7bb3-7e0e-4458-bc94-1f149c904bc4"}},{"type":"Feature","id":"u_fc_poi_school.4793","geometry":{"type":"Point","coordinates":[8.54327,12.02672]},"geometry_name":"geom","properties":{"state_code":"KN","source":"NMIS","name":"Mukaddami Islamiyya School","ward_code":"KN3105","category":"Primary","subtype":"Primary","management":"Public","education":"Religious","poi_type":"School","no_of_teachers":null,"no_of_students":null,"global_id":"0bd4ca16-4079-46e1-abff-46384aa5bdbc"}},{"type":"Feature","id":"u_fc_poi_school.4829","geometry":{"type":"Point","coordinates":[6.47789,12.74585]},"geometry_name":"geom","properties":{"state_code":"ZA","source":"OSGOF","name":"Makarantan Islamiya Bakin Zurmau","ward_code":"80904","category":"Other","subtype":"Standard","management":"Faith Based","education":"Religious","poi_type":"School","no_of_teachers":null,"no_of_students":null,"global_id":"0be94b07-4e7a-4152-9303-8d1b4cea8636"}},{"type":"Feature","id":"u_fc_poi_school.4862","geometry":{"type":"Point","coordinates":[7.8609934,12.34915]},"geometry_name":"geom","properties":{"state_code":"KT","source":"NMIS","name":"Islamiyya Sabarawa","ward_code":"42310","category":"Primary","subtype":"Primary","management":"Public","education":"Religious","poi_type":"School","no_of_teachers":null,"no_of_students":null,"global_id":"0bfff290-486f-4c46-8971-df423ee2b4f1"}},{"type":"Feature","id":"u_fc_poi_school.4920","geometry":{"type":"Point","coordinates":[10.4218683,12.7281332]},"geometry_name":"geom","properties":{"state_code":"JI","source":"NMIS","name":"Talimul Aulad Islamiyya","ward_code":"JI1005","category":"Primary","subtype":"Primary","management":"Public","education":"Religious","poi_type":"School","no_of_teachers":null,"no_of_students":null,"global_id":"0c235f74-3801-48e9-aa99-73c9a8ab6fd2"}},{"type":"Feature","id":"u_fc_poi_school.4993","geometry":{"type":"Point","coordinates":[8.239633,12.23726]},"geometry_name":"geom","properties":{"state_code":"KN","source":"NMIS","name":"Muhd Tukur Sabo Islamiyya","ward_code":"KN0502","category":"Primary","subtype":"Primary","management":"Public","education":"Religious","poi_type":"School","no_of_teachers":null,"no_of_students":null,"global_id":"0c512e87-006a-4ade-b3c7-7f7ebb42b35f"}},{"type":"Feature","id":"u_fc_poi_school.5001","geometry":{"type":"Point","coordinates":[9.7639433,10.688875]},"geometry_name":"geom","properties":{"state_code":"BA","source":"NMIS","name":"Formwan Primary School","ward_code":"BA0803","category":"Primary","subtype":"Standard","management":"Public","education":"Religious","poi_type":"School","no_of_teachers":null,"no_of_students":null,"global_id":"0c556d2c-83b3-479e-8d88-69fd997a86a5"}},{"type":"Feature","id":"u_fc_poi_school.5092","geometry":{"type":"Point","coordinates":[8.493773,11.96647]},"geometry_name":"geom","properties":{"state_code":"KN","source":"NMIS","name":"Asahabul Kahfi","ward_code":"KN1803","category":"Other","subtype":"Other","management":"Public","education":"Religious","poi_type":"School","no_of_teachers":null,"no_of_students":null,"global_id":"0c8fbdd3-2b96-4b60-aa50-78cf797ab43c"}},{"type":"Feature","id":"u_fc_poi_school.5144","geometry":{"type":"Point","coordinates":[4.7433893,13.0075424]},"geometry_name":"geom","properties":{"state_code":"SO","source":"NMIS","name":"Tauhidi Islamiyya School","ward_code":"61506","category":"Primary","subtype":"Primary","management":"Private","education":"Religious","poi_type":"School","no_of_teachers":null,"no_of_students":null,"global_id":"0caf436c-87be-4b40-a166-eb6e7cc16c18"}},{"type":"Feature","id":"u_fc_poi_school.5153","geometry":{"type":"Point","coordinates":[8.248067,12.03987]},"geometry_name":"geom","properties":{"state_code":"KN","source":"NMIS","name":"Nurul Huda Islamiyya","ward_code":"KN0306","category":"Primary","subtype":"Primary","management":"Public","education":"Religious","poi_type":"School","no_of_teachers":null,"no_of_students":null,"global_id":"0cb53608-432a-4bf4-a6a0-6fab11d4b0e4"}},{"type":"Feature","id":"u_fc_poi_school.5213","geometry":{"type":"Point","coordinates":[7.418746,10.546561]},"geometry_name":"geom","properties":{"state_code":"KD","source":"NMIS","name":"Favour International School","ward_code":"KD0912","category":"Primary","subtype":"Primary","management":"Private","education":"Religious","poi_type":"School","no_of_teachers":null,"no_of_students":null,"global_id":"0cd959b0-7447-4610-9870-f8b562d8f1d4"}},{"type":"Feature","id":"u_fc_poi_school.5278","geometry":{"type":"Point","coordinates":[8.550188,12.04611]},"geometry_name":"geom","properties":{"state_code":"KN","source":"NMIS","name":"Madarasatul Quran","ward_code":"KN3108","category":"Primary","subtype":"Primary","management":"Public","education":"Religious","poi_type":"School","no_of_teachers":null,"no_of_students":null,"global_id":"0d03bf67-7258-4e74-9d34-111a1c7b3424"}},{"type":"Feature","id":"u_fc_poi_school.5294","geometry":{"type":"Point","coordinates":[7.9622126,9.9369997]},"geometry_name":"geom","properties":{"state_code":"KD","source":"NMIS","name":"Islamic School Sakwai","ward_code":"KD0808","category":"Primary","subtype":"Primary","management":"Private","education":"Religious","poi_type":"School","no_of_teachers":null,"no_of_students":null,"global_id":"0d0d4fb7-1a84-4659-bafa-b29728ba0e38"}},{"type":"Feature","id":"u_fc_poi_school.5301","geometry":{"type":"Point","coordinates":[4.9683877,12.7064621]},"geometry_name":"geom","properties":{"state_code":"SO","source":"NMIS","name":"Malam Mani Islamiyya","ward_code":"62302","category":"Primary","subtype":"Primary","management":"Private","education":"Religious","poi_type":"School","no_of_teachers":null,"no_of_students":null,"global_id":"0d1110f6-feac-4cff-8557-9db79bd8d685"}},{"type":"Feature","id":"u_fc_poi_school.5388","geometry":{"type":"Point","coordinates":[8.574483,10.68644]},"geometry_name":"geom","properties":{"state_code":"KN","source":"NMIS","name":"Unguwar Natsohuwa Islamiyya","ward_code":"KN1109","category":"Primary","subtype":"Primary","management":"Public","education":"Religious","poi_type":"School","no_of_teachers":null,"no_of_students":null,"global_id":"0d467b5c-aa8e-4935-a636-1e5ae345ddf8"}},{"type":"Feature","id":"u_fc_poi_school.5432","geometry":{"type":"Point","coordinates":[5.2319873,13.4933194]},"geometry_name":"geom","properties":{"state_code":"SO","source":"NMIS","name":"M K O S Magaji Islamiyya School","ward_code":"60705","category":"Primary","subtype":"Primary","management":"Public","education":"Religious","poi_type":"School","no_of_teachers":null,"no_of_students":null,"global_id":"0d63dc7c-db30-4e3d-82d2-7fd2bf7f68e3"}},{"type":"Feature","id":"u_fc_poi_school.5453","geometry":{"type":"Point","coordinates":[5.6312388,8.9818865]},"geometry_name":"geom","properties":{"state_code":"NI","source":"NMIS","name":"Islamic Training School Gata Lile","ward_code":"NISENG07","category":"Primary","subtype":"Primary","management":"Private","education":"Religious","poi_type":"School","no_of_teachers":null,"no_of_students":null,"global_id":"0d722142-8b6d-4f91-b484-2e4a74d7ada2"}},{"type":"Feature","id":"u_fc_poi_school.5500","geometry":{"type":"Point","coordinates":[8.699557,11.59482]},"geometry_name":"geom","properties":{"state_code":"KN","source":"NMIS","name":"Madarasatul Hadiyatul Quran","ward_code":"KN2301","category":"Primary","subtype":"Primary","management":"Public","education":"Religious","poi_type":"School","no_of_teachers":null,"no_of_students":null,"global_id":"0d92cf96-3bc9-4cd9-8b68-e34c5bf0b62f"}},{"type":"Feature","id":"u_fc_poi_school.5732","geometry":{"type":"Point","coordinates":[5.2356836,13.3601386]},"geometry_name":"geom","properties":{"state_code":"SO","source":"NMIS","name":"Miwi Primary School","ward_code":"60706","category":"Primary","subtype":"Primary","management":"Faith Based","education":"Religious","poi_type":"School","no_of_teachers":null,"no_of_students":null,"global_id":"0e1ae14b-6399-43e9-bd1a-d85262e68f82"}},{"type":"Feature","id":"u_fc_poi_school.5789","geometry":{"type":"Point","coordinates":[7.9729,12.5066]},"geometry_name":"geom","properties":{"state_code":"KT","source":"OSGOF","name":"Isilamiyya School Boko","ward_code":"42302","category":"Other","subtype":"Standard","management":"Faith Based","education":"Religious","poi_type":"School","no_of_teachers":null,"no_of_students":null,"global_id":"0e3f7758-4f26-4d6d-ba6f-0a34ad51d9bc"}},{"type":"Feature","id":"u_fc_poi_school.5839","geometry":{"type":"Point","coordinates":[8.544344,12.03504]},"geometry_name":"geom","properties":{"state_code":"KN","source":"NMIS","name":"Minhajjuddin Islamiyya","ward_code":"KN3108","category":"Primary","subtype":"Primary","management":"Public","education":"Religious","poi_type":"School","no_of_teachers":null,"no_of_students":null,"global_id":"0e5c3399-1131-45ff-82f8-7365e56815e8"}},{"type":"Feature","id":"u_fc_poi_school.5881","geometry":{"type":"Point","coordinates":[5.0786048,12.7485888]},"geometry_name":"geom","properties":{"state_code":"SO","source":"NMIS","name":"Muzuru Islamia School","ward_code":"62307","category":"Tertiary","subtype":"Adult Education","management":"Private","education":"Religious","poi_type":"School","no_of_teachers":null,"no_of_students":null,"global_id":"0e75e688-f749-48d7-b465-1f12fc4424ce"}},{"type":"Feature","id":"u_fc_poi_school.5899","geometry":{"type":"Point","coordinates":[8.768996,11.75103]},"geometry_name":"geom","properties":{"state_code":"KN","source":"NMIS","name":"Ruhul Islam Islamiya","ward_code":"KN4405","category":"Primary","subtype":"Primary","management":"Public","education":"Religious","poi_type":"School","no_of_teachers":null,"no_of_students":null,"global_id":"0e7bcfe2-c57a-4526-a20d-9e215f16f457"}},{"type":"Feature","id":"u_fc_poi_school.6302","geometry":{"type":"Point","coordinates":[8.50372,12.86208]},"geometry_name":"geom","properties":{"state_code":"KT","source":"OSGOF","name":"Islamiyya School Kasuwayel","ward_code":"43402","category":"Other","subtype":"Standard","management":"Faith Based","education":"Religious","poi_type":"School","no_of_teachers":null,"no_of_students":null,"global_id":"0f8109b3-f45b-43dc-b418-184a258a78f4"}},{"type":"Feature","id":"u_fc_poi_school.6477","geometry":{"type":"Point","coordinates":[5.3354753,12.3512394]},"geometry_name":"geom","properties":{"state_code":"SO","source":"NMIS","name":"Makarantar Allo","ward_code":"62001","category":"Primary","subtype":"Pre Primary","management":"Private","education":"Religious","poi_type":"School","no_of_teachers":null,"no_of_students":null,"global_id":"0ff220fe-cdf3-48af-8fba-b169e317717e"}},{"type":"Feature","id":"u_fc_poi_school.6518","geometry":{"type":"Point","coordinates":[8.392315,12.2758]},"geometry_name":"geom","properties":{"state_code":"KN","source":"NMIS","name":"Government Girls Junior Arabic Secondary School","ward_code":"KN0509","category":"Secondary","subtype":"Junior","management":"Public","education":"Religious","poi_type":"School","no_of_teachers":null,"no_of_students":null,"global_id":"1017e362-94cf-41d9-aa63-9bc8a5b311f5"}},{"type":"Feature","id":"u_fc_poi_school.6571","geometry":{"type":"Point","coordinates":[7.4876466,12.1005613]},"geometry_name":"geom","properties":{"state_code":"KT","source":"NMIS","name":"Tashar Kadanya Islamiyya","ward_code":"40901","category":"Primary","subtype":"Pre Primary","management":"Public","education":"Religious","poi_type":"School","no_of_teachers":null,"no_of_students":null,"global_id":"1036ce77-0c81-4fac-92b7-646634a224ce"}},{"type":"Feature","id":"u_fc_poi_school.6651","geometry":{"type":"Point","coordinates":[9.17669,11.53133]},"geometry_name":"geom","properties":{"state_code":"KN","source":"NMIS","name":"Sakwaya Islamiya","ward_code":"KN3702","category":"Primary","subtype":"Primary","management":"Public","education":"Religious","poi_type":"School","no_of_teachers":null,"no_of_students":null,"global_id":"10641828-206b-4312-8a52-95c9b1e9a48e"}},{"type":"Feature","id":"u_fc_poi_school.6659","geometry":{"type":"Point","coordinates":[3.870192,7.366682]},"geometry_name":"geom","properties":{"state_code":"OY","source":"NMIS","name":"Ansaruddeen High School Liberty","ward_code":"OYSISW09","category":"Secondary","subtype":"Standard","management":"Public","education":"Religious","poi_type":"School","no_of_teachers":null,"no_of_students":null,"global_id":"10692707-bfed-4682-b1db-d630828675f4"}},{"type":"Feature","id":"u_fc_poi_school.6746","geometry":{"type":"Point","coordinates":[5.2153371,13.2017566]},"geometry_name":"geom","properties":{"state_code":"SO","source":"NMIS","name":"Kwallatawa Nizzamiya","ward_code":"61101","category":"Primary","subtype":"Primary","management":"Public","education":"Religious","poi_type":"School","no_of_teachers":null,"no_of_students":null,"global_id":"10b2fbe6-3f52-492e-b7d6-bae054ba87f2"}},{"type":"Feature","id":"u_fc_poi_school.6853","geometry":{"type":"Point","coordinates":[4.839283,12.9421138]},"geometry_name":"geom","properties":{"state_code":"SO","source":"NMIS","name":"Kwanggel Quranic School","ward_code":"61503","category":"Tertiary","subtype":"Adult Education","management":"Private","education":"Religious","poi_type":"School","no_of_teachers":null,"no_of_students":null,"global_id":"10fae337-5ec5-4ee5-9239-b2d6b0280af1"}},{"type":"Feature","id":"u_fc_poi_school.6971","geometry":{"type":"Point","coordinates":[7.3312202,12.2588159]},"geometry_name":"geom","properties":{"state_code":"KT","source":"NMIS","name":"Madarasatul Tarbiyatul Awlad","ward_code":"40904","category":"Primary","subtype":"Primary","management":"Public","education":"Religious","poi_type":"School","no_of_teachers":null,"no_of_students":null,"global_id":"1151fd08-bd6c-4d80-b35b-1c505a23b174"}},{"type":"Feature","id":"u_fc_poi_school.6982","geometry":{"type":"Point","coordinates":[9.13306,11.9852]},"geometry_name":"geom","properties":{"state_code":"KN","source":"NMIS","name":"Tarbiyatul Aulad Gafasa Islamiyya","ward_code":"KN0106","category":"Primary","subtype":"Primary","management":"Public","education":"Religious","poi_type":"School","no_of_teachers":null,"no_of_students":null,"global_id":"1157982b-22d2-435f-b1f8-8ec2d74086e6"}},{"type":"Feature","id":"u_fc_poi_school.7073","geometry":{"type":"Point","coordinates":[6.2854564,12.7532065]},"geometry_name":"geom","properties":{"state_code":"ZA","source":"NMIS","name":"Tarbitul Islamiya Kanwuri Faru","ward_code":"80903","category":"Tertiary","subtype":"Adult Education","management":"Private","education":"Religious","poi_type":"School","no_of_teachers":null,"no_of_students":null,"global_id":"1186539a-b079-4a0b-94de-5a36b4830c6d"}},{"type":"Feature","id":"u_fc_poi_school.7100","geometry":{"type":"Point","coordinates":[8.743242,11.85649]},"geometry_name":"geom","properties":{"state_code":"KN","source":"NMIS","name":"Jemagu Islamiyya","ward_code":"KN4303","category":"Primary","subtype":"Primary","management":"Public","education":"Religious","poi_type":"School","no_of_teachers":null,"no_of_students":null,"global_id":"11956237-db75-46a3-b1fd-460b6ccf6e48"}},{"type":"Feature","id":"u_fc_poi_school.7127","geometry":{"type":"Point","coordinates":[8.995058,11.55742]},"geometry_name":"geom","properties":{"state_code":"KN","source":"NMIS","name":"Imam Malik Islamiyya","ward_code":"KN1406","category":"Primary","subtype":"Primary","management":"Private","education":"Religious","poi_type":"School","no_of_teachers":null,"no_of_students":null,"global_id":"11a8084a-50b8-4ff5-bc2b-7bb5409df288"}},{"type":"Feature","id":"u_fc_poi_school.7140","geometry":{"type":"Point","coordinates":[8.099815,11.84397]},"geometry_name":"geom","properties":{"state_code":"KN","source":"NMIS","name":"Sabon Garin Dausawa Islamiyya School","ward_code":"KN2202","category":"Primary","subtype":"Primary","management":"Public","education":"Religious","poi_type":"School","no_of_teachers":null,"no_of_students":null,"global_id":"11b0c502-db82-45a0-b50e-ae1bf7944f20"}},{"type":"Feature","id":"u_fc_poi_school.7148","geometry":{"type":"Point","coordinates":[8.131202,12.15591]},"geometry_name":"geom","properties":{"state_code":"KN","source":"NMIS","name":"Mal Gambo Quranic School","ward_code":"KN0301","category":"Primary","subtype":"Primary","management":"Public","education":"Religious","poi_type":"School","no_of_teachers":null,"no_of_students":null,"global_id":"11b4617e-2c69-4f3c-8691-1cfbf95b805a"}},{"type":"Feature","id":"u_fc_poi_school.7186","geometry":{"type":"Point","coordinates":[7.2166067,11.2822133]},"geometry_name":"geom","properties":{"state_code":"KT","source":"NMIS","name":"Unguwar Dutse Islamiya","ward_code":"40710","category":"Primary","subtype":"Primary","management":"Public","education":"Religious","poi_type":"School","no_of_teachers":null,"no_of_students":null,"global_id":"11ce0c61-3928-4947-a5cb-021dc67447c9"}},{"type":"Feature","id":"u_fc_poi_school.7273","geometry":{"type":"Point","coordinates":[6.46198,12.91914]},"geometry_name":"geom","properties":{"state_code":"ZA","source":"OSGOF","name":"Madarasul Islamiya Dole","ward_code":"81401","category":"Other","subtype":"Standard","management":"Faith Based","education":"Religious","poi_type":"School","no_of_teachers":null,"no_of_students":null,"global_id":"120341b7-3c4e-4ace-ad40-7234fe12cef8"}},{"type":"Feature","id":"u_fc_poi_school.7284","geometry":{"type":"Point","coordinates":[13.87729,11.13414]},"geometry_name":"geom","properties":{"state_code":"BR","source":"OSGOF","name":"Ashigashiya Islamiya","ward_code":"11101","category":"Other","subtype":"Standard","management":"Faith Based","education":"Religious","poi_type":"School","no_of_teachers":null,"no_of_students":null,"global_id":"1209eaef-c35b-42a5-9c89-afdc1593f715"}},{"type":"Feature","id":"u_fc_poi_school.7356","geometry":{"type":"Point","coordinates":[8.105142,11.85909]},"geometry_name":"geom","properties":{"state_code":"KN","source":"NMIS","name":"Katsalle Islamiyya","ward_code":"KN2003","category":"Primary","subtype":"Primary","management":"Public","education":"Religious","poi_type":"School","no_of_teachers":null,"no_of_students":null,"global_id":"123238bc-682e-43cc-bc1c-2b44409c955c"}},{"type":"Feature","id":"u_fc_poi_school.7375","geometry":{"type":"Point","coordinates":[8.739575,11.54867]},"geometry_name":"geom","properties":{"state_code":"KN","source":"NMIS","name":"Kanyar Kani Islamiyya School","ward_code":"KN2304","category":"Primary","subtype":"Primary","management":"Public","education":"Religious","poi_type":"School","no_of_teachers":null,"no_of_students":null,"global_id":"123b3633-5b23-4683-bdf4-7f9f590abb14"}},{"type":"Feature","id":"u_fc_poi_school.7467","geometry":{"type":"Point","coordinates":[5.462811,10.3962908]},"geometry_name":"geom","properties":{"state_code":"NI","source":"NMIS","name":"Maigari Godabe Madarasul Ulum Wasakafatul Islamiya","ward_code":"NISKNT05","category":"Primary","subtype":"Primary","management":"Private","education":"Religious","poi_type":"School","no_of_teachers":null,"no_of_students":null,"global_id":"127a87a9-2f8f-4571-96f6-cb0567c934a7"}},{"type":"Feature","id":"u_fc_poi_school.7524","geometry":{"type":"Point","coordinates":[6.0016251,8.8735038]},"geometry_name":"geom","properties":{"state_code":"NI","source":"NMIS","name":"Madarasatu Islamiya Etsuzagi","ward_code":"NISKUG08","category":"Tertiary","subtype":"Adult Education","management":"Private","education":"Religious","poi_type":"School","no_of_teachers":null,"no_of_students":null,"global_id":"1298c1f0-7448-4533-a41c-5a46d352c0b2"}},{"type":"Feature","id":"u_fc_poi_school.7541","geometry":{"type":"Point","coordinates":[4.568545,8.507719]},"geometry_name":"geom","properties":{"state_code":"KW","source":"NMIS","name":"Omohiyah Nursery Primary School","ward_code":"KWSKEY12","category":"Primary","subtype":"Standard","management":"Private","education":"Religious","poi_type":"School","no_of_teachers":null,"no_of_students":null,"global_id":"12a4455b-f501-45ad-8352-994c3820853d"}},{"type":"Feature","id":"u_fc_poi_school.7552","geometry":{"type":"Point","coordinates":[8.566166,11.98793]},"geometry_name":"geom","properties":{"state_code":"KN","source":"NMIS","name":"Halimatussadiya Primary School","ward_code":"KN3104","category":"Primary","subtype":"Primary","management":"Public","education":"Religious","poi_type":"School","no_of_teachers":null,"no_of_students":null,"global_id":"12ac36d1-3702-4373-81d5-cd7842927189"}},{"type":"Feature","id":"u_fc_poi_school.7620","geometry":{"type":"Point","coordinates":[6.3605109,13.5171024]},"geometry_name":"geom","properties":{"state_code":"SO","source":"NMIS","name":"Madasatu Taalimul Kuran Wal","ward_code":"61304","category":"Primary","subtype":"Standard","management":"Public","education":"Religious","poi_type":"School","no_of_teachers":null,"no_of_students":null,"global_id":"12d250d5-16b3-4d5f-9e68-b3294000eba3"}},{"type":"Feature","id":"u_fc_poi_school.7624","geometry":{"type":"Point","coordinates":[8.536,11.69553]},"geometry_name":"geom","properties":{"state_code":"KN","source":"NMIS","name":"Tahfizul Quran Bunkure","ward_code":"KN0603","category":"Primary","subtype":"Primary","management":"Public","education":"Religious","poi_type":"School","no_of_teachers":null,"no_of_students":null,"global_id":"12d327b8-9f5f-4402-b1bc-d4d4eeaf36a2"}},{"type":"Feature","id":"u_fc_poi_school.7642","geometry":{"type":"Point","coordinates":[7.05058,11.92441]},"geometry_name":"geom","properties":{"state_code":"ZA","source":"OSGOF","name":"Islamiya School Dan Amana Galadima","ward_code":"81311","category":"Other","subtype":"Standard","management":"Faith Based","education":"Religious","poi_type":"School","no_of_teachers":null,"no_of_students":null,"global_id":"12dda40c-5408-432e-abf2-428923a2dabc"}},{"type":"Feature","id":"u_fc_poi_school.7668","geometry":{"type":"Point","coordinates":[8.055366,11.79866]},"geometry_name":"geom","properties":{"state_code":"KN","source":"NMIS","name":"Darul Kurufi Islamiyya Dirin","ward_code":"KN2203","category":"Primary","subtype":"Primary","management":"Public","education":"Religious","poi_type":"School","no_of_teachers":null,"no_of_students":null,"global_id":"12ec03cc-f95d-411b-bb04-3e2677973b70"}},{"type":"Feature","id":"u_fc_poi_school.7739","geometry":{"type":"Point","coordinates":[7.929877,12.33055]},"geometry_name":"geom","properties":{"state_code":"KN","source":"NMIS","name":"Yankamaye B Islamiyya","ward_code":"KN4008","category":"Primary","subtype":"Primary","management":"Public","education":"Religious","poi_type":"School","no_of_teachers":null,"no_of_students":null,"global_id":"131990b8-9e5e-4ce9-9281-b01127e57349"}},{"type":"Feature","id":"u_fc_poi_school.7830","geometry":{"type":"Point","coordinates":[7.99698,12.40082]},"geometry_name":"geom","properties":{"state_code":"KT","source":"OSGOF","name":"Isilamiyya School","ward_code":"42301","category":"Other","subtype":"Standard","management":"Faith Based","education":"Religious","poi_type":"School","no_of_teachers":null,"no_of_students":null,"global_id":"13526b47-33b2-4e25-82f8-a43f8b7c6634"}},{"type":"Feature","id":"u_fc_poi_school.7870","geometry":{"type":"Point","coordinates":[8.526809,11.85096]},"geometry_name":"geom","properties":{"state_code":"KN","source":"NMIS","name":"Matage Islamiyyah School","ward_code":"KN0909","category":"Primary","subtype":"Primary","management":"Public","education":"Religious","poi_type":"School","no_of_teachers":null,"no_of_students":null,"global_id":"136cabbc-b56c-4b19-89e3-c59dd2cc4db4"}},{"type":"Feature","id":"u_fc_poi_school.7874","geometry":{"type":"Point","coordinates":[7.7708455,12.8387069]},"geometry_name":"geom","properties":{"state_code":"KT","source":"NMIS","name":"Damisau Islamiya Schoo","ward_code":"43002","category":"Primary","subtype":"Primary","management":"Public","education":"Religious","poi_type":"School","no_of_teachers":null,"no_of_students":null,"global_id":"13709b59-84a0-42ad-903d-edef125b924b"}},{"type":"Feature","id":"u_fc_poi_school.7928","geometry":{"type":"Point","coordinates":[8.17511,12.18163]},"geometry_name":"geom","properties":{"state_code":"KN","source":"NMIS","name":"Gangare Quranic School","ward_code":"KN0301","category":"Other","subtype":"Other","management":"Faith Based","education":"Religious","poi_type":"School","no_of_teachers":null,"no_of_students":null,"global_id":"1389faa2-9a2f-409d-8fec-2ab4c174d65f"}},{"type":"Feature","id":"u_fc_poi_school.8039","geometry":{"type":"Point","coordinates":[8.396294,11.9909]},"geometry_name":"geom","properties":{"state_code":"KN","source":"NMIS","name":"Langel Islamiyya","ward_code":"KN3909","category":"Primary","subtype":"Primary","management":"Public","education":"Religious","poi_type":"School","no_of_teachers":null,"no_of_students":null,"global_id":"13d1002c-57ad-4cea-bc9d-ed5bf304c512"}},{"type":"Feature","id":"u_fc_poi_school.8137","geometry":{"type":"Point","coordinates":[8.686503,11.98359]},"geometry_name":"geom","properties":{"state_code":"KN","source":"NMIS","name":"Marlke Islamiyya School","ward_code":"KN4312","category":"Primary","subtype":"Primary","management":"Public","education":"Religious","poi_type":"School","no_of_teachers":null,"no_of_students":null,"global_id":"140a20ec-9310-4e9e-9297-48e4ee24418b"}},{"type":"Feature","id":"u_fc_poi_school.8232","geometry":{"type":"Point","coordinates":[8.316466,12.34462]},"geometry_name":"geom","properties":{"state_code":"KN","source":"NMIS","name":"Tarbiyyatul Islamiyya School Tofawa","ward_code":"KN2604","category":"Primary","subtype":"Primary","management":"Public","education":"Religious","poi_type":"School","no_of_teachers":null,"no_of_students":null,"global_id":"1445edac-8c3f-4225-bce7-6c8f14713a54"}},{"type":"Feature","id":"u_fc_poi_school.8361","geometry":{"type":"Point","coordinates":[7.70828,11.48792]},"geometry_name":"geom","properties":{"state_code":"KN","source":"NMIS","name":"Zamfarawar Tsara Islamiyya School","ward_code":"KN3402","category":"Primary","subtype":"Primary","management":"Public","education":"Religious","poi_type":"School","no_of_teachers":null,"no_of_students":null,"global_id":"14910064-b6c1-4e93-b727-a7be288d0110"}},{"type":"Feature","id":"u_fc_poi_school.8382","geometry":{"type":"Point","coordinates":[6.3262812,13.5622597]},"geometry_name":"geom","properties":{"state_code":"SO","source":"NMIS","name":"Hajiya Aminatu Madrasatul Tarbiyatul","ward_code":"61307","category":"Primary","subtype":"Pre Primary","management":"Private","education":"Religious","poi_type":"School","no_of_teachers":null,"no_of_students":null,"global_id":"149c96eb-5578-4793-8dc2-15173adf6a9c"}},{"type":"Feature","id":"u_fc_poi_school.8404","geometry":{"type":"Point","coordinates":[7.6214358,10.2620294]},"geometry_name":"geom","properties":{"state_code":"KD","source":"NMIS","name":"Madarasatul Nurul Islamiyya Kajuru Station","ward_code":"KD1210","category":"Other","subtype":"Other","management":"Private","education":"Religious","poi_type":"School","no_of_teachers":null,"no_of_students":null,"global_id":"14a8c193-808f-49f6-b980-a0e20be6852d"}},{"type":"Feature","id":"u_fc_poi_school.8443","geometry":{"type":"Point","coordinates":[5.4807178,13.7317705]},"geometry_name":"geom","properties":{"state_code":"SO","source":"NMIS","name":"Bujaga Primary School","ward_code":"60406","category":"Primary","subtype":"Primary","management":"Private","education":"Religious","poi_type":"School","no_of_teachers":null,"no_of_students":null,"global_id":"14bdc26c-9539-49fd-a57d-9978813dfeb6"}},{"type":"Feature","id":"u_fc_poi_school.8481","geometry":{"type":"Point","coordinates":[8.492975,11.9817]},"geometry_name":"geom","properties":{"state_code":"KN","source":"NMIS","name":"Almansuriyya Litahafizul Quran Islamiyya Primary School","ward_code":"KN1810","category":"Primary","subtype":"Primary","management":"Public","education":"Religious","poi_type":"School","no_of_teachers":null,"no_of_students":null,"global_id":"14d4c122-b51c-4cd2-81dd-8eea7ee69898"}},{"type":"Feature","id":"u_fc_poi_school.8484","geometry":{"type":"Point","coordinates":[7.903203,11.75416]},"geometry_name":"geom","properties":{"state_code":"KN","source":"NMIS","name":"Takuntuke Islamiya","ward_code":"KN2204","category":"Primary","subtype":"Primary","management":"Public","education":"Religious","poi_type":"School","no_of_teachers":null,"no_of_students":null,"global_id":"14d7282c-54cd-4798-af14-2f6485f89393"}},{"type":"Feature","id":"u_fc_poi_school.8511","geometry":{"type":"Point","coordinates":[8.255454,12.08794]},"geometry_name":"geom","properties":{"state_code":"KN","source":"NMIS","name":"Mallam Shehu Garba Quranic School","ward_code":"KN0307","category":"Primary","subtype":"Primary","management":"Public","education":"Religious","poi_type":"School","no_of_teachers":null,"no_of_students":null,"global_id":"14ea28e9-add8-4d19-9e69-007facc6124a"}},{"type":"Feature","id":"u_fc_poi_school.8561","geometry":{"type":"Point","coordinates":[3.9184724,6.8153733]},"geometry_name":"geom","properties":{"state_code":"OG","source":"NMIS","name":"Qalat Ipameten Primary and Secondary School","ward_code":"OGSOGU10","category":"Mixed","subtype":"Aggregate","management":"Private","education":"Religious","poi_type":"School","no_of_teachers":null,"no_of_students":null,"global_id":"1509b885-b01a-4fe2-9eb3-54ab864796b8"}},{"type":"Feature","id":"u_fc_poi_school.8698","geometry":{"type":"Point","coordinates":[8.141458,11.84657]},"geometry_name":"geom","properties":{"state_code":"KN","source":"NMIS","name":"Tofa Islamiyya School","ward_code":"KN2009","category":"Primary","subtype":"Primary","management":"Public","education":"Religious","poi_type":"School","no_of_teachers":null,"no_of_students":null,"global_id":"15686f9c-9abe-46c7-b2c4-56bb2a5d13d3"}},{"type":"Feature","id":"u_fc_poi_school.8774","geometry":{"type":"Point","coordinates":[6.5308,9.64969]},"geometry_name":"geom","properties":{"state_code":"NI","source":"OSGOF","name":"Nural Islamic School Anguwan Tukura Bosso","ward_code":"NISMNA02","category":"Other","subtype":"Standard","management":"Faith Based","education":"Religious","poi_type":"School","no_of_teachers":null,"no_of_students":null,"global_id":"15927edd-5db3-4287-b9f1-ff3f4834345e"}},{"type":"Feature","id":"u_fc_poi_school.8846","geometry":{"type":"Point","coordinates":[8.507564,12.01482]},"geometry_name":"geom","properties":{"state_code":"KN","source":"NMIS","name":"Manarul Huda Islamiyyah School","ward_code":"KN0706","category":"Primary","subtype":"Primary","management":"Public","education":"Religious","poi_type":"School","no_of_teachers":null,"no_of_students":null,"global_id":"15c16fa9-b7a9-4eb2-9488-a91e4b212c17"}},{"type":"Feature","id":"u_fc_poi_school.8864","geometry":{"type":"Point","coordinates":[8.1891,12.11808]},"geometry_name":"geom","properties":{"state_code":"KN","source":"NMIS","name":"Mallam Bulyam Tahafizul Quran","ward_code":"KN0305","category":"Primary","subtype":"Primary","management":"Public","education":"Religious","poi_type":"School","no_of_teachers":null,"no_of_students":null,"global_id":"15ca79e4-7840-4a92-a6ee-09858ca53ca8"}},{"type":"Feature","id":"u_fc_poi_school.8941","geometry":{"type":"Point","coordinates":[6.83634,12.03381]},"geometry_name":"geom","properties":{"state_code":"ZA","source":"OSGOF","name":"Islamiya School Biya Buki","ward_code":"81308","category":"Other","subtype":"Standard","management":"Faith Based","education":"Religious","poi_type":"School","no_of_teachers":null,"no_of_students":null,"global_id":"15fb491e-7694-4b0e-9eac-9af09043390b"}},{"type":"Feature","id":"u_fc_poi_school.8947","geometry":{"type":"Point","coordinates":[7.1736753,11.5231133]},"geometry_name":"geom","properties":{"state_code":"KT","source":"NMIS","name":"Jiruwa Islamiyya","ward_code":"40702","category":"Primary","subtype":"Primary","management":"Public","education":"Religious","poi_type":"School","no_of_teachers":null,"no_of_students":null,"global_id":"15fe6ce9-52ec-40cc-afdd-93d0a5415491"}},{"type":"Feature","id":"u_fc_poi_school.8963","geometry":{"type":"Point","coordinates":[7.7058337,12.8512943]},"geometry_name":"geom","properties":{"state_code":"KT","source":"NMIS","name":"Madarasatul Quran Wal ilmu","ward_code":"43008","category":"Primary","subtype":"Primary","management":"Public","education":"Religious","poi_type":"School","no_of_teachers":null,"no_of_students":null,"global_id":"16088b93-094c-448f-93bf-8bc467004571"}},{"type":"Feature","id":"u_fc_poi_school.9050","geometry":{"type":"Point","coordinates":[8.570221,11.98199]},"geometry_name":"geom","properties":{"state_code":"KN","source":"NMIS","name":"Madaratul Abubakar Saddiq Islamiyya","ward_code":"KN3104","category":"Primary","subtype":"Primary","management":"Public","education":"Religious","poi_type":"School","no_of_teachers":null,"no_of_students":null,"global_id":"1633519d-2a6b-44b3-a2d4-ba4195cd7d26"}},{"type":"Feature","id":"u_fc_poi_school.9052","geometry":{"type":"Point","coordinates":[5.9955367,13.5123583]},"geometry_name":"geom","properties":{"state_code":"SO","source":"NMIS","name":"Madarasatul Nurul Huda Islamiyya Kurukuru","ward_code":"61310","category":"Primary","subtype":"Primary","management":"Public","education":"Religious","poi_type":"School","no_of_teachers":null,"no_of_students":null,"global_id":"1633ad75-748e-423e-8cfd-782452d4ffc0"}},{"type":"Feature","id":"u_fc_poi_school.9102","geometry":{"type":"Point","coordinates":[7.85062,11.0486067]},"geometry_name":"geom","properties":{"state_code":"KD","source":"NMIS","name":"Madrisat Tarbiyatul Aulad","ward_code":"KD2107","category":"Other","subtype":"Other","management":"Private","education":"Religious","poi_type":"School","no_of_teachers":null,"no_of_students":null,"global_id":"164fed16-f32b-48e0-9447-8c8d16a85dac"}},{"type":"Feature","id":"u_fc_poi_school.9145","geometry":{"type":"Point","coordinates":[9.418212,8.978174]},"geometry_name":"geom","properties":{"state_code":"PL","source":"NMIS","name":"Science Primary School Zomo","ward_code":"PLSSHD13","category":"Primary","subtype":"Primary","management":"Public","education":"Religious","poi_type":"School","no_of_teachers":null,"no_of_students":null,"global_id":"16696c5e-1cff-4c35-9c70-9f7a43e139a1"}},{"type":"Feature","id":"u_fc_poi_school.9258","geometry":{"type":"Point","coordinates":[8.697782,11.69863]},"geometry_name":"geom","properties":{"state_code":"KN","source":"NMIS","name":"Limamai Islamiyya School","ward_code":"KN0609","category":"Primary","subtype":"Primary","management":"Public","education":"Religious","poi_type":"School","no_of_teachers":null,"no_of_students":null,"global_id":"16ab1cf7-da65-4a2d-b0e9-1a0477884831"}},{"type":"Feature","id":"u_fc_poi_school.9334","geometry":{"type":"Point","coordinates":[8.02525,12.21694]},"geometry_name":"geom","properties":{"state_code":"KN","source":"NMIS","name":"Kokai Islamiyya","ward_code":"KN4002","category":"Primary","subtype":"Primary","management":"Public","education":"Religious","poi_type":"School","no_of_teachers":null,"no_of_students":null,"global_id":"16dc139f-6311-49bb-ae62-6add1dc1231a"}},{"type":"Feature","id":"u_fc_poi_school.9475","geometry":{"type":"Point","coordinates":[8.12219,12.2079]},"geometry_name":"geom","properties":{"state_code":"KN","source":"NMIS","name":"Dutsen Karya Islamiyya","ward_code":"KN0502","category":"Primary","subtype":"Primary","management":"Private","education":"Religious","poi_type":"School","no_of_teachers":null,"no_of_students":null,"global_id":"1729428f-2e39-4ae1-af6e-b0e4ddbdb734"}},{"type":"Feature","id":"u_fc_poi_school.9484","geometry":{"type":"Point","coordinates":[8.762886,11.85811]},"geometry_name":"geom","properties":{"state_code":"KN","source":"NMIS","name":"Maboya Islamiyya","ward_code":"KN4303","category":"Primary","subtype":"Primary","management":"Public","education":"Religious","poi_type":"School","no_of_teachers":null,"no_of_students":null,"global_id":"172f339a-7554-4518-a0da-e2fc50bc3279"}},{"type":"Feature","id":"u_fc_poi_school.9559","geometry":{"type":"Point","coordinates":[8.198814,12.04231]},"geometry_name":"geom","properties":{"state_code":"KN","source":"NMIS","name":"Mal Isa Quranic School","ward_code":"KN0302","category":"Primary","subtype":"Primary","management":"Public","education":"Religious","poi_type":"School","no_of_teachers":null,"no_of_students":null,"global_id":"1760eddb-07c9-4c20-803e-a53fa04450ca"}},{"type":"Feature","id":"u_fc_poi_school.9699","geometry":{"type":"Point","coordinates":[8.735479,11.5649]},"geometry_name":"geom","properties":{"state_code":"KN","source":"NMIS","name":"Izzatul Islamiyya School Kuluki","ward_code":"KN2304","category":"Primary","subtype":"Primary","management":"Public","education":"Religious","poi_type":"School","no_of_teachers":null,"no_of_students":null,"global_id":"17a97fcb-fcf4-495d-941b-fb2dfdb51f15"}},{"type":"Feature","id":"u_fc_poi_school.9808","geometry":{"type":"Point","coordinates":[8.624053,12.22308]},"geometry_name":"geom","properties":{"state_code":"KN","source":"NMIS","name":"Nurul Zamani Islamiyya","ward_code":"KN3010","category":"Primary","subtype":"Primary","management":"Public","education":"Religious","poi_type":"School","no_of_teachers":null,"no_of_students":null,"global_id":"17e4cd5d-d614-4af6-9b48-a11711345d2e"}},{"type":"Feature","id":"u_fc_poi_school.9825","geometry":{"type":"Point","coordinates":[4.8259324,12.7996731]},"geometry_name":"geom","properties":{"state_code":"SO","source":"NMIS","name":"Mallam Sahabi Islamiyyal","ward_code":"62303","category":"Primary","subtype":"Pre Primary","management":"Private","education":"Religious","poi_type":"School","no_of_teachers":null,"no_of_students":null,"global_id":"17f0ab37-ef86-4f5f-a503-a695e36194c5"}},{"type":"Feature","id":"u_fc_poi_school.9892","geometry":{"type":"Point","coordinates":[8.659558,12.17874]},"geometry_name":"geom","properties":{"state_code":"KN","source":"NMIS","name":"Malam Barau Quran School","ward_code":"KN3007","category":"Primary","subtype":"Primary","management":"Public","education":"Religious","poi_type":"School","no_of_teachers":null,"no_of_students":null,"global_id":"181f1c6e-d098-4492-9f57-19ee718d060e"}},{"type":"Feature","id":"u_fc_poi_school.9976","geometry":{"type":"Point","coordinates":[9.037705,11.8066]},"geometry_name":"geom","properties":{"state_code":"KN","source":"NMIS","name":"KulafaaUldeen Islamiyya","ward_code":"KN1601","category":"Primary","subtype":"Primary","management":"Public","education":"Religious","poi_type":"School","no_of_teachers":null,"no_of_students":null,"global_id":"18578586-5fb2-46fb-826d-9c51cf9e3f84"}},{"type":"Feature","id":"u_fc_poi_school.9996","geometry":{"type":"Point","coordinates":[8.126267,11.73246]},"geometry_name":"geom","properties":{"state_code":"KN","source":"NMIS","name":"Bargoni Islamiyya Primary School","ward_code":"KN2411","category":"Primary","subtype":"Primary","management":"Public","education":"Religious","poi_type":"School","no_of_teachers":null,"no_of_students":null,"global_id":"1862a921-7b71-428c-979a-0a76e69bc629"}},{"type":"Feature","id":"u_fc_poi_school.10023","geometry":{"type":"Point","coordinates":[8.510589,12.0071]},"geometry_name":"geom","properties":{"state_code":"KN","source":"NMIS","name":"Hidayatul Quran Makwalla","ward_code":"KN0701","category":"Primary","subtype":"Primary","management":"Public","education":"Religious","poi_type":"School","no_of_teachers":null,"no_of_students":null,"global_id":"18736371-0a66-4690-9a58-396542ab6729"}},{"type":"Feature","id":"u_fc_poi_school.10168","geometry":{"type":"Point","coordinates":[8.567995,11.98148]},"geometry_name":"geom","properties":{"state_code":"KN","source":"NMIS","name":"Tahfizul Quran","ward_code":"KN3104","category":"Primary","subtype":"Primary","management":"Public","education":"Religious","poi_type":"School","no_of_teachers":null,"no_of_students":null,"global_id":"18c2e23e-725b-4b5b-acd5-bea243fdf297"}},{"type":"Feature","id":"u_fc_poi_school.10324","geometry":{"type":"Point","coordinates":[8.597549,11.83389]},"geometry_name":"geom","properties":{"state_code":"KN","source":"NMIS","name":"Rimin Gwauro Islamiyya","ward_code":"KN0903","category":"Primary","subtype":"Primary","management":"Public","education":"Religious","poi_type":"School","no_of_teachers":null,"no_of_students":null,"global_id":"192286ce-a854-46ab-86e1-ca6c1a9727d6"}},{"type":"Feature","id":"u_fc_poi_school.10354","geometry":{"type":"Point","coordinates":[11.16932,10.30516]},"geometry_name":"geom","properties":{"state_code":"GO","source":"OSGOF","name":"Jauro Abare Madarasatul Islamic School","ward_code":"GMSGME11","category":"Other","subtype":"Standard","management":"Faith Based","education":"Religious","poi_type":"School","no_of_teachers":null,"no_of_students":null,"global_id":"1931500e-49e2-4b60-baff-e0e9b5d025b9"}},{"type":"Feature","id":"u_fc_poi_school.10359","geometry":{"type":"Point","coordinates":[7.68702,12.38551]},"geometry_name":"geom","properties":{"state_code":"KT","source":"OSGOF","name":"Ungtabakad Islamic Primary School","ward_code":"40608","category":"Primary","subtype":"Primary","management":"Faith Based","education":"Religious","poi_type":"School","no_of_teachers":null,"no_of_students":null,"global_id":"19324a20-39e4-4809-b877-cf70ebbd2cd8"}},{"type":"Feature","id":"u_fc_poi_school.10441","geometry":{"type":"Point","coordinates":[8.498188,12.0224]},"geometry_name":"geom","properties":{"state_code":"KN","source":"NMIS","name":"Maahaad Abdullahi Gidan Gawu Islamiyya","ward_code":"KN0710","category":"Primary","subtype":"Primary","management":"Public","education":"Religious","poi_type":"School","no_of_teachers":null,"no_of_students":null,"global_id":"195b631e-f417-405c-84ec-7736e2453550"}},{"type":"Feature","id":"u_fc_poi_school.10652","geometry":{"type":"Point","coordinates":[7.754628,11.48622]},"geometry_name":"geom","properties":{"state_code":"KN","source":"NMIS","name":"Sheikh Dahiru Bauchi TaaAlimul Quran Gwangwan","ward_code":"KN3404","category":"Primary","subtype":"Primary","management":"Public","education":"Religious","poi_type":"School","no_of_teachers":null,"no_of_students":null,"global_id":"19e4b9b3-d486-4f35-86ac-0b1018cf68ea"}},{"type":"Feature","id":"u_fc_poi_school.10716","geometry":{"type":"Point","coordinates":[7.987532,11.85149]},"geometry_name":"geom","properties":{"state_code":"KN","source":"NMIS","name":"Zanginawa Islamiyya Primary","ward_code":"KN1909","category":"Primary","subtype":"Primary","management":"Public","education":"Religious","poi_type":"School","no_of_teachers":null,"no_of_students":null,"global_id":"1a0a6e60-d083-4cdf-b619-fbae8a656738"}},{"type":"Feature","id":"u_fc_poi_school.10751","geometry":{"type":"Point","coordinates":[8.767969,12.2179]},"geometry_name":"geom","properties":{"state_code":"KN","source":"NMIS","name":"Yautar Arewa Islamiyya","ward_code":"KN1307","category":"Primary","subtype":"Primary","management":"Public","education":"Religious","poi_type":"School","no_of_teachers":null,"no_of_students":null,"global_id":"1a203e55-2f80-443e-a9a4-d84b8df902d2"}},{"type":"Feature","id":"u_fc_poi_school.10752","geometry":{"type":"Point","coordinates":[7.860021,11.95808]},"geometry_name":"geom","properties":{"state_code":"KN","source":"NMIS","name":"Katsira Islamiya","ward_code":"KN1906","category":"Primary","subtype":"Primary","management":"Public","education":"Religious","poi_type":"School","no_of_teachers":null,"no_of_students":null,"global_id":"1a20aad3-ea83-4425-ba9a-7b93615c47e4"}},{"type":"Feature","id":"u_fc_poi_school.10811","geometry":{"type":"Point","coordinates":[7.9522562,9.8732489]},"geometry_name":"geom","properties":{"state_code":"KD","source":"NMIS","name":"Madarasatul Islamiya Unguwan Tabo","ward_code":"KD0808","category":"Primary","subtype":"Standard","management":"Private","education":"Religious","poi_type":"School","no_of_teachers":null,"no_of_students":null,"global_id":"1a48d648-6c09-40dd-b40d-efc3976a0eec"}},{"type":"Feature","id":"u_fc_poi_school.10822","geometry":{"type":"Point","coordinates":[7.826455,11.54638]},"geometry_name":"geom","properties":{"state_code":"KN","source":"NMIS","name":"Madarasatu Tahafizul Quran Islamic Centre","ward_code":"KN3407","category":"Primary","subtype":"Primary","management":"Public","education":"Religious","poi_type":"School","no_of_teachers":null,"no_of_students":null,"global_id":"1a4fd84c-96c8-484d-b1d7-ef478722c586"}},{"type":"Feature","id":"u_fc_poi_school.10908","geometry":{"type":"Point","coordinates":[8.290671,12.26539]},"geometry_name":"geom","properties":{"state_code":"KN","source":"NMIS","name":"Lima Tayab Quranic And Islamiya","ward_code":"KN0501","category":"Primary","subtype":"Primary","management":"Public","education":"Religious","poi_type":"School","no_of_teachers":null,"no_of_students":null,"global_id":"1a83e804-6060-473b-bf98-905e76bc8218"}},{"type":"Feature","id":"u_fc_poi_school.11001","geometry":{"type":"Point","coordinates":[7.98102,13.30691]},"geometry_name":"geom","properties":{"state_code":"KT","source":"OSGOF","name":"Kuntaru Islamic School","ward_code":"42701","category":"Other","subtype":"Standard","management":"Faith Based","education":"Religious","poi_type":"School","no_of_teachers":null,"no_of_students":null,"global_id":"1abe4974-69f2-4e60-85ff-aabfd2fae285"}},{"type":"Feature","id":"u_fc_poi_school.11016","geometry":{"type":"Point","coordinates":[8.734019,11.92613]},"geometry_name":"geom","properties":{"state_code":"KN","source":"NMIS","name":"Marayan Nasara Islamiyya School","ward_code":"KN4310","category":"Primary","subtype":"Primary","management":"Public","education":"Religious","poi_type":"School","no_of_teachers":null,"no_of_students":null,"global_id":"1acae644-3e52-42c7-89ca-5be0a7f7c490"}},{"type":"Feature","id":"u_fc_poi_school.11094","geometry":{"type":"Point","coordinates":[9.113942,11.57653]},"geometry_name":"geom","properties":{"state_code":"KN","source":"NMIS","name":"Takai Islamiyya","ward_code":"KN3709","category":"Primary","subtype":"Primary","management":"Public","education":"Religious","poi_type":"School","no_of_teachers":null,"no_of_students":null,"global_id":"1afe8b1f-8f39-43a5-b937-91b4e77404a8"}},{"type":"Feature","id":"u_fc_poi_school.11451","geometry":{"type":"Point","coordinates":[8.446902,11.64702]},"geometry_name":"geom","properties":{"state_code":"KN","source":"NMIS","name":"Abdullahi Bn Masaud","ward_code":"KN1508","category":"Other","subtype":"Other","management":"Public","education":"Religious","poi_type":"School","no_of_teachers":null,"no_of_students":null,"global_id":"1bcb1705-8aae-4500-9008-af053bab2f4d"}},{"type":"Feature","id":"u_fc_poi_school.11478","geometry":{"type":"Point","coordinates":[8.591908,11.96691]},"geometry_name":"geom","properties":{"state_code":"KN","source":"NMIS","name":"Zangina Islamiyya","ward_code":"KN3107","category":"Primary","subtype":"Primary","management":"Public","education":"Religious","poi_type":"School","no_of_teachers":null,"no_of_students":null,"global_id":"1bdc874b-5033-4040-8d13-d592f7e01374"}},{"type":"Feature","id":"u_fc_poi_school.11488","geometry":{"type":"Point","coordinates":[8.59457,11.8432]},"geometry_name":"geom","properties":{"state_code":"KN","source":"NMIS","name":"Tsangayar Mal Yahuza Islamiya School","ward_code":"KN0903","category":"Primary","subtype":"Primary","management":"Public","education":"Religious","poi_type":"School","no_of_teachers":null,"no_of_students":null,"global_id":"1be2e202-f05e-46c2-95cd-4e56141869e8"}},{"type":"Feature","id":"u_fc_poi_school.11539","geometry":{"type":"Point","coordinates":[6.51016,9.65493]},"geometry_name":"geom","properties":{"state_code":"NI","source":"OSGOF","name":"Ar Rayyan Islamic Foundation Bosso Estate","ward_code":"NISMNA02","category":"Other","subtype":"Standard","management":"Faith Based","education":"Religious","poi_type":"School","no_of_teachers":null,"no_of_students":null,"global_id":"1c05a10d-d0e6-40bb-9aa9-b5acc79342db"}},{"type":"Feature","id":"u_fc_poi_school.11556","geometry":{"type":"Point","coordinates":[9.8285121,10.2842558]},"geometry_name":"geom","properties":{"state_code":"BA","source":"NMIS","name":"Forwan Nursery Primary School","ward_code":"BA0211","category":"Primary","subtype":"Standard","management":"Public","education":"Religious","poi_type":"School","no_of_teachers":null,"no_of_students":null,"global_id":"1c130c59-e73e-4764-a724-d04369248bde"}},{"type":"Feature","id":"u_fc_poi_school.11600","geometry":{"type":"Point","coordinates":[7.914553,12.09906]},"geometry_name":"geom","properties":{"state_code":"KN","source":"NMIS","name":"Madarasatul Nurul Huda Islamiyya Sabon Gida Nasarawa","ward_code":"KN3501","category":"Primary","subtype":"Primary","management":"Public","education":"Religious","poi_type":"School","no_of_teachers":null,"no_of_students":null,"global_id":"1c29f19b-f2a4-4323-80ee-f3144293a006"}},{"type":"Feature","id":"u_fc_poi_school.11601","geometry":{"type":"Point","coordinates":[7.7063822,11.1255704]},"geometry_name":"geom","properties":{"state_code":"KD","source":"NMIS","name":"Nahdhatil Islamic School","ward_code":"KD1905","category":"Secondary","subtype":"Standard","management":"Private","education":"Religious","poi_type":"School","no_of_teachers":null,"no_of_students":null,"global_id":"1c2a19c2-e8a8-4e56-841b-8fc02b0444b5"}},{"type":"Feature","id":"u_fc_poi_school.11666","geometry":{"type":"Point","coordinates":[4.5802433,10.7064027]},"geometry_name":"geom","properties":{"state_code":"NI","source":"NMIS","name":"Salafiya Madarasatu School","ward_code":"NISAGR05","category":"Primary","subtype":"Pre Primary","management":"Faith Based","education":"Religious","poi_type":"School","no_of_teachers":null,"no_of_students":null,"global_id":"1c53bd57-a449-4ce3-a195-42cdd1db0890"}},{"type":"Feature","id":"u_fc_poi_school.11713","geometry":{"type":"Point","coordinates":[6.0201591,11.6833055]},"geometry_name":"geom","properties":{"state_code":"ZA","source":"NMIS","name":"Government Day Junior Secondary School","ward_code":"80107","category":"Secondary","subtype":"Junior","management":"Public","education":"Religious","poi_type":"School","no_of_teachers":null,"no_of_students":null,"global_id":"1c741012-433c-4eb7-bf36-561517a69c8c"}},{"type":"Feature","id":"u_fc_poi_school.11972","geometry":{"type":"Point","coordinates":[4.8988685,12.9320778]},"geometry_name":"geom","properties":{"state_code":"SO","source":"NMIS","name":"Islamiyya Rundi","ward_code":"61503","category":"Tertiary","subtype":"Adult Education","management":"Private","education":"Religious","poi_type":"School","no_of_teachers":null,"no_of_students":null,"global_id":"1d1c2273-12e4-4014-9c6e-584bced68c55"}},{"type":"Feature","id":"u_fc_poi_school.12134","geometry":{"type":"Point","coordinates":[7.3440072,12.1341417]},"geometry_name":"geom","properties":{"state_code":"KT","source":"NMIS","name":"Madarasatul Tadarisu Fil Luggatul Arabiyya Wal Ulumul Dinnliyya","ward_code":"40906","category":"Primary","subtype":"Primary","management":"Public","education":"Religious","poi_type":"School","no_of_teachers":null,"no_of_students":null,"global_id":"1d7d29f8-41b8-4500-b290-05f2cc169c50"}},{"type":"Feature","id":"u_fc_poi_school.12154","geometry":{"type":"Point","coordinates":[8.24694,11.96823]},"geometry_name":"geom","properties":{"state_code":"KN","source":"NMIS","name":"Nurilyakin Islamiyaa School","ward_code":"KN3308","category":"Primary","subtype":"Primary","management":"Public","education":"Religious","poi_type":"School","no_of_teachers":null,"no_of_students":null,"global_id":"1d8c319c-0658-4c89-b6e0-bf640837c090"}},{"type":"Feature","id":"u_fc_poi_school.12163","geometry":{"type":"Point","coordinates":[7.849295,11.047685]},"geometry_name":"geom","properties":{"state_code":"KD","source":"NMIS","name":"Madarasatul Nurul Islam","ward_code":"KD2107","category":"Other","subtype":"Other","management":"Private","education":"Religious","poi_type":"School","no_of_teachers":null,"no_of_students":null,"global_id":"1d90dd37-283d-4b45-ad0a-f7efb8da0c24"}},{"type":"Feature","id":"u_fc_poi_school.12185","geometry":{"type":"Point","coordinates":[7.952678,12.4805165]},"geometry_name":"geom","properties":{"state_code":"KT","source":"NMIS","name":"Isawa Islamic School","ward_code":"42307","category":"Primary","subtype":"Primary","management":"Public","education":"Religious","poi_type":"School","no_of_teachers":null,"no_of_students":null,"global_id":"1da04c74-a998-46a9-a48f-005f528fb8aa"}},{"type":"Feature","id":"u_fc_poi_school.12212","geometry":{"type":"Point","coordinates":[10.3787107,12.8352442]},"geometry_name":"geom","properties":{"state_code":"JI","source":"NMIS","name":"Nurul Islam","ward_code":"JI1008","category":"Primary","subtype":"Primary","management":"Public","education":"Religious","poi_type":"School","no_of_teachers":null,"no_of_students":null,"global_id":"1db4e706-538b-44cf-a63f-7f1d8a57d763"}},{"type":"Feature","id":"u_fc_poi_school.12230","geometry":{"type":"Point","coordinates":[13.398572,10.419667]},"geometry_name":"geom","properties":{"state_code":"AD","source":"NMIS","name":"Baptist Primary School","ward_code":"ADSMUB07","category":"Primary","subtype":"Primary","management":"Faith Based","education":"Religious","poi_type":"School","no_of_teachers":null,"no_of_students":null,"global_id":"1dc69833-9293-43d4-8a19-cee88dddd698"}},{"type":"Feature","id":"u_fc_poi_school.12251","geometry":{"type":"Point","coordinates":[8.295543,12.05499]},"geometry_name":"geom","properties":{"state_code":"KN","source":"NMIS","name":"Yanoko Islamiyya School","ward_code":"KN3914","category":"Primary","subtype":"Primary","management":"Public","education":"Religious","poi_type":"School","no_of_teachers":null,"no_of_students":null,"global_id":"1dd71918-0737-4756-87c4-6ad2c0dcfd42"}},{"type":"Feature","id":"u_fc_poi_school.12277","geometry":{"type":"Point","coordinates":[8.42587,11.76906]},"geometry_name":"geom","properties":{"state_code":"KN","source":"NMIS","name":"Aliyu Bn Abitalib","ward_code":"KN2707","category":"Primary","subtype":"Primary","management":"Private","education":"Religious","poi_type":"School","no_of_teachers":null,"no_of_students":null,"global_id":"1de6ccb8-d945-4aa0-92d3-90ef2da774ad"}},{"type":"Feature","id":"u_fc_poi_school.12282","geometry":{"type":"Point","coordinates":[7.930277,12.18438]},"geometry_name":"geom","properties":{"state_code":"KN","source":"NMIS","name":"Shanunawa Islamiyya","ward_code":"KN3503","category":"Primary","subtype":"Primary","management":"Public","education":"Religious","poi_type":"School","no_of_teachers":null,"no_of_students":null,"global_id":"1de93fb1-5249-4e46-a102-cf68c7c2fa1b"}},{"type":"Feature","id":"u_fc_poi_school.12308","geometry":{"type":"Point","coordinates":[9.003544,12.00757]},"geometry_name":"geom","properties":{"state_code":"KN","source":"NMIS","name":"Abdullahi Bin Fodiyo Islamiyya Kawari","ward_code":"KN0103","category":"Primary","subtype":"Primary","management":"Public","education":"Religious","poi_type":"School","no_of_teachers":null,"no_of_students":null,"global_id":"1dfa7bc0-6f70-4e44-8b6c-5c0f4dc81a12"}},